City_ID,City,Clouds,Country,Date,Humidity,Latitude,Longitude,Max Temperature,Temperature,Wind Speed
0,suchil,21,MX,1591217193,17,23.63,-103.92,85.73,85.73,15.23
1,conakry,85,GN,1591217088,80,9.54,-13.68,82.53,82.53,6.35
2,ushuaia,75,AR,1591217011,75,-54.8,-68.3,44.6,44.6,17.22
3,kirakira,97,SB,1591217193,74,-10.45,161.92,82.51,82.51,4.59
4,east london,100,ZA,1591217093,78,-33.02,27.91,65.39,65.39,6.89
5,warrington,91,GB,1591217002,71,53.39,-2.58,55.0,52.84,4.7
6,shido,75,JP,1591217194,88,34.32,134.17,66.2,65.05,4.7
7,carayao,29,PY,1591217194,71,-25.18,-56.4,66.96,66.96,1.97
8,kaili,56,ID,1591217194,89,-3.46,120.21,68.18,68.18,1.86
9,avarua,14,CK,1591217194,78,-21.21,-159.78,77.0,77.0,13.87
10,jamestown,40,US,1591216936,69,42.1,-79.24,75.99,74.7,17.22
11,plouzane,75,FR,1591217194,93,48.38,-4.62,57.2,56.64,5.82
12,puerto ayora,40,EC,1591217194,58,-0.74,-90.35,84.2,79.7,19.46
13,port alfred,100,ZA,1591217194,94,-33.59,26.89,61.0,61.0,1.99
14,broome,75,US,1591216939,60,42.25,-75.83,75.99,74.19,12.75
15,pevek,68,RU,1591217194,76,69.7,170.31,39.6,39.6,3.44
16,port macquarie,51,AU,1591217086,79,-31.43,152.92,55.0,55.0,3.0
17,nikolskoye,100,RU,1591216916,59,59.7,30.79,60.8,57.99,4.47
18,albany,74,US,1591217195,56,42.6,-73.97,79.0,78.03,12.91
19,busselton,0,AU,1591217195,77,-33.65,115.33,48.0,46.53,6.02
20,hobart,20,AU,1591217195,70,-42.88,147.33,44.01,41.38,9.17
21,dikson,99,RU,1591216901,98,73.51,80.55,31.26,31.26,14.85
22,topchikha,20,RU,1591217195,61,52.82,83.12,48.2,48.2,6.71
23,dubbo,0,AU,1591216967,93,-32.25,148.62,39.2,39.2,9.17
24,hithadhoo,89,MV,1591217195,65,-0.6,73.08,84.24,84.24,6.98
25,puri,40,IN,1591216988,94,19.8,85.85,78.8,78.8,4.7
26,bluff,100,NZ,1591217195,79,-46.6,168.33,47.41,47.41,22.91
27,haines junction,96,CA,1591217045,44,60.75,-137.51,52.61,52.61,8.46
28,punta arenas,90,CL,1591217094,65,-53.15,-70.92,46.4,46.2,21.92
29,butaritari,84,KI,1591217195,77,3.07,172.79,82.22,82.22,6.73
30,koslan,18,RU,1591217195,54,63.46,48.9,50.4,50.4,3.31
31,rikitea,100,PF,1591217196,80,-23.12,-134.97,75.7,75.7,18.57
32,dhadar,22,IN,1591217196,31,28.33,75.06,90.77,90.77,5.06
33,sechura,52,PE,1591217196,57,-5.56,-80.82,77.16,77.16,16.93
34,saint-philippe,47,RE,1591217141,68,-21.36,55.77,69.8,61.72,6.93
35,mayo,1,US,1591217196,48,38.89,-76.51,91.99,89.94,9.17
36,nantucket,1,US,1591217196,87,41.28,-70.1,63.0,61.47,14.99
37,oussouye,17,SN,1591217196,65,12.48,-16.55,82.4,82.4,9.17
38,chuy,17,UY,1591216906,77,-33.7,-53.46,51.55,51.55,4.38
39,gat,0,IL,1591217196,67,31.61,34.76,71.01,66.27,3.51
40,thompson,75,CA,1591216899,48,55.74,-97.86,60.8,60.8,5.82
41,mar del plata,75,AR,1591217196,71,-38.0,-57.56,51.8,50.88,11.41
42,holalkere,100,IN,1591217196,76,14.03,76.18,73.27,73.27,10.31
43,mataura,100,NZ,1591217196,92,-46.19,168.86,44.1,44.1,7.49
44,clyde river,5,CA,1591217196,100,70.47,-68.59,28.4,28.4,5.82
45,kahului,40,US,1591217154,52,20.89,-156.47,87.8,82.0,20.8
46,arraial do cabo,0,BR,1591216911,83,-22.97,-42.03,73.4,73.4,3.36
47,szubin,0,PL,1591217197,66,53.01,17.74,53.6,53.6,5.82
48,ponta do sol,20,PT,1591216957,64,32.67,-17.1,69.8,67.1,13.87
49,roura,40,GF,1591217197,83,4.73,-52.33,82.4,82.4,10.29
50,kozhva,0,RU,1591217004,66,65.11,57.05,46.58,46.58,3.0
51,victoria,91,HK,1591217111,74,22.29,114.16,84.0,83.03,8.01
52,san patricio,75,MX,1591217197,74,19.22,-104.7,82.4,82.4,13.87
53,labytnangi,79,RU,1591217197,58,66.66,66.42,45.37,45.37,2.71
54,kapaa,20,US,1591217197,78,22.08,-159.32,81.0,80.83,11.41
55,puerto baquerizo moreno,20,EC,1591217197,74,-0.9,-89.6,80.6,80.6,9.17
56,moussoro,0,TD,1591217197,35,13.64,16.49,91.44,91.44,12.84
57,hermanus,82,ZA,1591217197,88,-34.42,19.23,57.0,57.0,14.47
58,kuala terengganu,20,MY,1591217197,88,5.33,103.14,78.8,78.4,5.82
59,slave lake,40,CA,1591217197,58,55.28,-114.77,57.2,57.2,25.28
60,samarai,61,PG,1591217198,86,-10.62,150.67,79.99,79.99,6.78
61,hilo,1,US,1591217131,54,19.73,-155.09,84.2,79.54,9.17
62,airai,100,TL,1591216905,100,-8.93,125.41,54.81,54.81,4.56
63,cap malheureux,100,MU,1591216941,70,-19.98,57.61,73.0,73.0,8.99
64,mahebourg,75,MU,1591217198,78,-20.41,57.7,71.6,71.6,13.87
65,klaksvik,5,FO,1591217124,87,62.23,-6.59,44.6,44.6,2.24
66,luderitz,27,NA,1591217198,87,-26.65,15.16,55.4,55.4,2.24
67,leningradskiy,37,RU,1591217198,68,69.38,178.42,42.06,42.06,5.75
68,carnarvon,0,AU,1591217198,42,-24.87,113.63,71.38,71.38,9.22
69,yellowknife,75,CA,1591217198,49,62.46,-114.35,48.99,48.34,4.7
70,khatanga,11,RU,1591216906,51,71.97,102.5,48.79,48.79,9.15
71,robertsport,100,LR,1591217198,80,6.75,-11.37,81.79,81.79,6.91
72,dongsheng,16,CN,1591217198,28,39.82,109.98,61.16,61.16,1.14
73,halifax,90,CA,1591217199,100,44.65,-63.57,51.01,47.26,6.93
74,shubarshi,59,KZ,1591217199,47,48.59,57.19,72.23,72.23,17.74
75,atuona,4,PF,1591217199,75,-9.8,-139.03,80.98,80.98,15.26
76,toila,100,EE,1591217199,82,59.42,27.5,53.94,53.94,4.32
77,olafsvik,61,IS,1591217107,84,64.89,-23.71,47.5,47.5,4.72
78,nishihara,20,JP,1591217199,94,26.18,127.76,80.6,80.4,17.22
79,haveli,50,PK,1591217199,35,30.45,73.7,89.19,89.19,5.55
80,bambous virieux,75,MU,1591217199,78,-20.34,57.76,73.0,72.27,13.87
81,sarakhs,0,IR,1591217199,28,36.54,61.16,80.6,80.6,2.24
82,baruun-urt,0,MN,1591217199,73,46.68,113.28,47.16,47.16,4.83
83,lavrentiya,0,RU,1591217199,67,65.58,-171.0,42.21,42.21,5.57
84,tabou,32,CI,1591217199,86,4.42,-7.35,79.57,79.57,6.73
85,longyearbyen,39,SJ,1591217199,69,78.22,15.64,37.4,37.4,4.7
86,thinadhoo,87,MV,1591217199,68,0.53,72.93,84.38,84.38,8.16
87,krasnoselkup,28,RU,1591216963,69,65.7,82.47,46.29,46.29,12.5
88,syracuse,1,IT,1591217111,49,37.09,15.28,71.6,66.58,2.24
89,lata,25,PT,1591217200,87,40.16,-8.33,66.99,64.99,3.02
90,gornyy,71,RU,1591217200,73,55.12,83.91,40.44,40.44,1.34
91,sydney,75,AU,1591216981,62,-33.87,151.21,51.8,50.4,17.22
92,fayaoue,71,NC,1591217200,83,-20.65,166.53,76.39,76.39,17.18
93,vaini,40,TO,1591217200,83,-21.2,-175.2,77.0,77.0,9.17
94,tasiilaq,100,GL,1591217200,65,65.61,-37.64,44.6,44.6,4.7
95,bredasdorp,96,ZA,1591217200,87,-34.53,20.04,59.0,59.0,2.24
96,narasannapeta,100,IN,1591217200,78,18.42,84.05,84.27,84.27,6.15
97,geraldton,0,AU,1591217200,66,-28.77,114.6,55.4,55.4,8.05
98,axim,5,GH,1591217200,84,4.87,-2.24,79.84,79.84,8.01
99,codrington,1,AU,1591217200,90,-38.27,141.97,40.64,40.64,5.01
100,torbay,75,CA,1591216985,58,47.67,-52.73,55.0,53.89,14.99
101,barrow,1,US,1591217201,80,71.29,-156.79,35.6,35.6,18.34
102,honiara,40,SB,1591217201,100,-9.43,159.95,75.2,75.2,1.68
103,padang,100,ID,1591217143,83,-0.95,100.35,77.9,77.9,2.55
104,cam ranh,20,VN,1591217131,74,11.92,109.16,86.0,86.0,5.82
105,port-cartier,75,CA,1591217201,61,50.03,-66.87,48.2,47.35,12.75
106,nanortalik,78,GL,1591216929,88,60.14,-45.24,48.36,48.36,4.56
107,zhigansk,66,RU,1591217201,51,66.77,123.37,50.65,50.65,10.4
108,vardo,75,NO,1591217201,87,70.37,31.11,42.8,42.8,6.93
109,comacchio,99,IT,1591217201,36,44.7,12.19,77.0,71.11,3.36
110,haverfordwest,83,GB,1591216902,76,51.8,-4.97,55.4,54.27,19.46
111,adrar,50,MR,1591217201,30,20.5,-10.07,89.67,89.67,13.31
112,khandyga,50,RU,1591217201,54,62.67,135.6,55.76,55.76,3.49
113,talnakh,9,RU,1591217201,75,69.49,88.4,44.6,44.6,17.9
114,georgetown,20,MY,1591217117,94,5.41,100.34,80.6,79.25,2.24
115,narsaq,75,GL,1591217202,59,60.92,-46.05,60.8,60.8,5.82
116,vanavara,100,RU,1591217202,73,60.34,102.28,49.91,49.91,3.09
117,san andres,90,CO,1591217090,88,12.58,-81.7,80.6,80.6,11.41
118,cape town,84,ZA,1591217026,77,-33.93,18.42,60.8,58.96,13.87
119,wagar,0,SD,1591217202,16,16.15,36.2,89.69,89.69,7.74
120,hambantota,71,LK,1591217202,85,6.12,81.12,78.13,78.13,13.06
121,saskylakh,100,RU,1591217202,59,71.92,114.08,47.89,47.89,7.43
122,buala,44,SB,1591217170,72,-8.14,159.59,82.85,82.85,4.18
123,san quintin,0,MX,1591217202,53,30.48,-115.95,75.69,75.69,9.37
124,mombetsu,28,JP,1591217202,82,44.35,143.35,55.99,55.99,1.99
125,kodiak,90,US,1591216915,87,57.79,-152.41,48.2,48.2,14.99
126,aklavik,5,CA,1591217202,40,68.22,-135.01,51.8,51.8,8.05
127,demerval lobao,31,BR,1591217202,55,-5.36,-42.68,89.6,89.6,4.7
128,daru,100,PG,1591217202,86,-9.08,143.21,77.9,77.9,18.75
129,coahuayana,20,MX,1591217107,62,18.73,-103.68,86.0,86.0,8.16
130,tuktoyaktuk,20,CA,1591217203,60,69.45,-133.04,41.0,41.0,12.75
131,ossora,94,RU,1591217203,71,59.24,163.07,45.48,45.48,2.59
132,fershampenuaz,95,RU,1591217224,75,53.52,59.81,54.45,54.45,5.99
133,saint george,1,US,1591217158,11,37.1,-113.58,100.0,98.67,3.36
134,bambanglipuro,53,ID,1591217224,87,-7.95,110.28,77.36,77.36,6.46
135,palaia fokaia,20,GR,1591217224,77,37.72,23.95,68.0,65.28,1.12
136,deputatskiy,100,RU,1591217224,77,69.3,139.9,38.62,38.62,4.7
137,port lincoln,99,AU,1591217142,78,-34.73,135.87,52.77,52.77,8.88
138,placido de castro,99,BR,1591217224,83,-10.34,-67.19,75.96,75.96,3.06
139,wasilla,1,US,1591217095,36,61.58,-149.44,60.8,59.74,4.7
140,kashi,81,CN,1591217224,27,39.45,75.98,77.0,77.0,11.18
141,dongli,40,CN,1591217224,100,23.57,116.82,78.8,78.8,5.26
142,new norfolk,8,AU,1591217225,77,-42.78,147.06,44.01,38.98,3.78
143,simpang,100,ID,1591217225,97,-1.27,104.08,74.3,74.3,3.31
144,rimbey,75,CA,1591216984,29,52.63,-114.24,60.8,58.17,20.8
145,nemuro,100,JP,1591216942,97,43.32,145.57,47.32,47.32,2.53
146,jambi,100,ID,1591217225,97,-1.6,103.62,73.98,73.98,2.51
147,port elizabeth,98,ZA,1591216928,93,-33.92,25.57,59.0,59.0,4.7
148,bubaque,0,GW,1591216962,76,11.28,-15.83,80.55,80.55,17.63
149,asmara,77,ER,1591217225,32,15.33,38.93,64.92,64.92,3.15
150,kirgiz-miyaki,100,RU,1591217225,87,53.63,54.8,54.46,54.46,7.29
151,tiksi,37,RU,1591217098,90,71.69,128.87,33.48,33.48,2.84
152,chokurdakh,51,RU,1591217225,65,70.63,147.92,41.45,41.45,9.22
153,wana,1,PK,1591217225,61,32.3,69.57,69.37,69.37,0.72
154,catamarca,0,AR,1591217225,53,-28.47,-65.79,57.99,54.59,3.0
155,sitka,75,US,1591217225,87,57.05,-135.33,48.2,48.2,3.36
156,kununurra,86,AU,1591217225,31,-15.77,128.73,64.4,64.4,6.93
157,owosso,1,US,1591217225,39,43.0,-84.18,84.0,82.81,11.41
158,pochutla,90,MX,1591217226,70,15.74,-96.47,84.2,84.2,11.41
159,qaanaaq,100,GL,1591217226,95,77.48,-69.36,29.89,29.89,5.55
160,camana,99,PE,1591217226,80,-16.62,-72.71,64.63,64.63,8.86
161,mount gambier,1,AU,1591216971,100,-37.83,140.77,33.8,33.8,4.7
162,souillac,75,MU,1591217226,78,-20.52,57.52,71.6,71.6,13.87
163,castro,69,BR,1591217021,96,-24.79,-50.01,58.23,58.23,4.7
164,singkang,20,MY,1591217226,83,2.1,102.8,80.6,80.31,2.24
165,ekhabi,100,RU,1591217226,97,53.51,142.97,37.38,37.38,10.13
166,bondo,100,CD,1591217226,98,3.81,23.69,69.4,69.4,3.13
167,hobyo,100,SO,1591217227,72,5.35,48.53,82.8,82.8,19.53
168,kumeny,2,RU,1591217227,78,58.11,49.92,47.12,47.12,7.65
169,faanui,0,PF,1591217227,68,-16.48,-151.75,79.68,79.68,6.15
170,quatre cocos,75,MU,1591216944,78,-20.21,57.76,73.0,72.34,13.87
171,baykit,100,RU,1591217169,79,61.67,96.37,49.89,49.89,2.53
172,osorno,0,CL,1591217227,71,-40.57,-73.15,53.6,53.6,3.36
173,athens,20,GR,1591217227,88,37.98,23.72,68.0,65.23,1.97
174,vanimo,100,PG,1591217224,84,-2.67,141.3,78.37,78.37,4.76
175,makakilo city,75,US,1591217040,61,21.35,-158.09,86.0,84.83,11.41
176,bethel,20,US,1591217227,73,41.37,-73.41,77.0,75.02,9.17
177,gunnedah,0,AU,1591217004,90,-30.98,150.25,33.8,33.8,3.36
178,kaitangata,100,NZ,1591217119,88,-46.28,169.85,46.0,46.0,17.0
179,southbridge,100,US,1591217018,67,42.08,-72.03,77.0,75.69,3.0
180,dawson,20,US,1591217227,66,31.77,-84.45,86.0,83.89,3.36
181,hay river,40,CA,1591217153,56,60.82,-115.8,44.6,44.6,12.75
182,sakaiminato,75,JP,1591217228,82,35.55,133.23,64.4,64.4,3.36
183,kruisfontein,100,ZA,1591217228,93,-34.0,24.73,55.45,55.45,3.49
184,norman wells,75,CA,1591217228,43,65.28,-126.83,51.8,51.8,5.82
185,cidreira,27,BR,1591217228,78,-30.18,-50.21,61.9,61.9,9.53
186,ballina,75,AU,1591217228,62,-28.87,153.57,55.4,50.99,12.75
187,snasa,40,NO,1591217228,81,64.25,12.38,51.8,51.8,1.12
188,ketchikan,75,US,1591216941,71,55.34,-131.65,53.6,52.9,12.75
189,college,75,US,1591217228,76,64.86,-147.8,57.99,54.52,8.05
190,canutama,55,BR,1591217228,84,-6.53,-64.38,82.51,82.51,2.3
191,nhulunbuy,2,AU,1591217228,66,-12.23,136.77,76.06,76.06,14.32
192,tenno,0,JP,1591217228,69,39.9,139.97,62.69,62.69,7.52
193,wuda,0,CN,1591217228,18,39.5,106.71,70.21,70.21,1.88
194,takoradi,0,GH,1591217228,85,4.88,-1.76,80.02,80.02,8.43
195,sola,100,VU,1591217228,82,-13.88,167.55,81.05,81.05,11.23
196,orlik,7,RU,1591217228,77,52.52,99.83,38.79,38.79,3.85
197,arman,0,RU,1591217229,60,59.7,150.17,49.08,49.08,2.46
198,pincher creek,1,CA,1591217229,29,49.48,-113.95,64.0,62.6,18.34
199,lucea,20,JM,1591217146,70,18.45,-78.17,87.8,86.86,25.28
200,japura,97,ID,1591217228,97,-0.32,102.35,75.09,75.09,4.29
201,flinders,27,AU,1591217229,61,-34.58,150.86,54.0,54.0,5.99
202,martapura,59,ID,1591217229,94,-3.42,114.85,74.5,74.5,2.04
203,san pedro,20,PH,1591217229,79,14.35,121.02,84.99,84.02,1.12
204,khasan,92,RU,1591217229,92,42.43,130.64,55.06,55.06,4.0
205,bergen,75,NO,1591217229,87,60.39,5.33,53.01,51.46,5.82
206,fortuna,1,US,1591217229,87,40.6,-124.16,64.99,61.25,14.99
207,den helder,90,NL,1591217229,76,52.96,4.76,60.01,57.92,11.41
208,cabo san lucas,5,MX,1591217200,48,22.89,-109.91,93.2,88.86,24.16
209,ojinaga,1,MX,1591217229,17,29.57,-104.42,100.4,100.4,6.93
210,faya,12,SA,1591217229,25,18.39,42.45,78.8,77.9,11.41
211,severnoye,87,RU,1591217230,88,56.35,78.36,39.0,39.0,5.3
212,karksi-nuia,20,EE,1591217230,97,58.1,25.56,47.32,47.32,5.19
213,richards bay,34,ZA,1591217230,84,-28.78,32.04,68.27,68.27,7.58
214,tura,100,IN,1591217230,96,25.52,90.22,73.38,73.38,6.78
215,lebu,0,CL,1591217230,75,-37.62,-73.65,53.13,53.13,12.3
216,salym,0,RU,1591217230,87,60.06,71.48,35.55,35.55,6.02
217,portales,75,US,1591217230,25,34.19,-103.33,91.99,90.81,12.75
218,reconquista,0,AR,1591217230,75,-29.15,-59.65,56.19,56.19,7.96
219,evanston,75,US,1591217230,45,42.04,-87.69,84.99,83.5,5.14
220,coihaique,60,CL,1591217230,33,-45.58,-72.07,44.6,44.6,6.93
221,smidovich,100,RU,1591217230,93,48.6,133.82,49.19,49.19,17.36
222,lompoc,1,US,1591217230,53,34.64,-120.46,81.0,76.08,16.11
223,gizo,92,SB,1591217143,71,-8.1,156.84,83.95,83.95,6.85
224,tuatapere,100,NZ,1591217230,86,-46.13,167.68,44.83,44.83,8.48
225,rawson,3,AR,1591217196,45,-43.3,-65.1,50.86,50.86,22.15
226,constitucion,8,CL,1591217147,77,-35.33,-72.42,54.39,54.39,5.86
227,ribeira grande,40,PT,1591217231,72,38.52,-28.7,64.4,64.4,21.92
228,mazara del vallo,15,IT,1591217231,82,37.66,12.59,68.0,63.52,5.82
229,lagoa,0,PT,1591217231,79,39.05,-27.98,62.64,62.64,23.67
230,port hueneme,40,US,1591217068,68,34.15,-119.2,82.4,72.25,11.41
231,petropavlovka,92,RU,1591217130,69,50.61,105.32,51.26,51.26,4.07
232,inirida,99,CO,1591217231,84,3.87,-67.92,82.85,82.85,2.15
233,rocha,92,UY,1591217066,85,-34.48,-54.33,47.25,47.25,3.8
234,jalu,0,LY,1591217169,31,29.03,21.55,74.62,74.62,15.3
235,manzhouli,95,CN,1591217231,64,49.6,117.43,53.17,53.17,4.38
236,asyut,24,EG,1591217231,27,27.18,31.18,83.89,83.89,7.0
237,rameswaram,100,IN,1591217231,82,9.28,79.3,84.02,84.02,27.72
238,colares,20,PT,1591217231,82,38.8,-9.45,69.01,66.67,5.82
239,camabatela,66,AO,1591217232,84,-8.19,15.38,66.16,66.16,2.64
240,cockburn town,0,TC,1591217232,78,21.46,-71.14,82.13,82.13,15.48
241,churapcha,0,RU,1591217232,58,62.0,132.43,55.69,55.69,5.21
242,masuguru,11,TZ,1591217232,66,-11.37,38.42,68.47,68.47,1.21
243,santa cruz,75,BO,1591217104,87,-17.8,-63.17,60.8,60.8,13.87
244,abha,35,SA,1591217232,25,18.22,42.51,78.8,77.85,11.41
245,kano,55,NG,1591217232,41,12.0,8.52,93.2,93.2,9.17
246,te anau,100,NZ,1591216978,87,-45.42,167.72,45.16,45.16,7.92
247,caucaia,20,BR,1591217232,66,-3.74,-38.65,84.2,83.59,12.75
248,koulikoro,100,ML,1591217232,25,14.0,-7.75,95.94,95.94,8.28
249,ahuimanu,40,US,1591217232,62,21.44,-157.84,86.0,84.78,10.29
250,choix,9,MX,1591217164,23,26.71,-108.32,105.73,105.73,9.4
251,matadi,3,CD,1591217233,88,-5.82,13.45,75.49,75.49,2.37
252,celestun,100,MX,1591217233,87,20.87,-90.4,79.03,79.03,19.46
253,praia da vitoria,75,PT,1591217233,88,38.73,-27.07,62.6,62.6,22.55
254,bonthe,96,SL,1591217233,85,7.53,-12.51,80.47,80.47,5.5
255,lamu,97,KE,1591217233,80,-2.27,40.9,79.16,79.16,16.98
256,smolenka,50,RU,1591217233,86,52.14,113.5,41.0,41.0,2.24
257,bollnas,68,SE,1591217233,78,61.35,16.39,47.05,47.05,3.96
258,priargunsk,100,RU,1591217233,71,50.37,119.1,50.18,50.18,1.72
259,oshawa,20,CA,1591217138,51,43.9,-78.85,80.6,80.6,16.11
260,saint-augustin,5,CA,1591217233,60,51.23,-58.65,47.41,47.41,20.96
261,iquitos,75,PE,1591217066,88,-3.75,-73.25,77.0,77.0,3.36
262,touros,20,BR,1591217234,74,-5.2,-35.46,82.4,82.4,9.17
263,sokolka,90,PL,1591217234,77,53.41,23.5,51.01,51.01,35.01
264,mormugao,90,IN,1591217234,83,15.4,73.8,82.4,82.4,11.41
265,hammerfest,75,NO,1591217234,65,70.66,23.68,44.6,44.6,3.36
266,kropotkin,0,RU,1591217024,91,45.44,40.58,55.81,55.81,6.69
267,okato,96,NZ,1591217234,83,-39.2,173.88,60.01,58.14,10.0
268,ningxiang,0,CN,1591217234,24,37.34,111.21,68.81,68.81,8.08
269,cherskiy,100,RU,1591217234,59,68.75,161.3,46.49,46.49,5.14
270,magdagachi,100,RU,1591217234,82,53.45,125.8,44.04,44.04,2.57
271,saint-ambroise,75,CA,1591217234,22,48.55,-71.33,64.4,64.2,17.22
272,hami,0,CN,1591217234,20,42.8,93.45,79.47,79.47,10.04
273,disna,21,BY,1591217234,95,55.57,28.2,49.39,49.39,7.78
274,marawi,45,PH,1591217234,88,8.0,124.29,77.0,77.0,5.01
275,gamba,100,GA,1591217234,88,-2.65,10.0,77.05,77.05,7.61
276,chapais,90,CA,1591217183,22,49.78,-74.85,59.0,59.0,12.75
277,guerrero negro,0,MX,1591217116,39,27.98,-114.06,80.94,80.94,15.19
278,saint anthony,1,US,1591217024,30,45.02,-93.22,84.0,82.4,3.36
279,andapa,85,MG,1591217235,88,-14.65,49.65,66.78,66.78,2.55
280,brae,100,GB,1591217235,70,60.4,-1.35,46.4,46.4,11.41
281,hasaki,75,JP,1591217235,94,35.73,140.83,68.0,67.68,5.82
282,stornoway,95,GB,1591217235,71,58.21,-6.39,51.01,50.41,3.36
283,weihai,0,CN,1591217235,70,37.5,122.11,66.36,66.36,7.02
284,doume,100,CM,1591217235,90,4.23,13.45,69.35,69.35,0.54
285,vila velha,40,BR,1591217126,88,-20.33,-40.29,73.4,73.18,9.17
286,ahipara,19,NZ,1591217235,83,-35.17,173.17,61.92,61.92,13.98
287,maragogi,17,BR,1591217235,86,-9.01,-35.22,77.77,77.77,4.34
288,isangel,40,VU,1591217235,88,-19.55,169.27,73.4,73.4,11.99
289,sfantu gheorghe,67,RO,1591217235,78,45.87,25.78,50.0,49.44,2.82
290,sao felix do xingu,80,BR,1591217235,84,-6.64,-51.99,78.13,78.13,3.18
291,samarinda,35,ID,1591217235,97,-0.5,117.15,73.67,73.67,0.96
292,shirgaon,100,IN,1591217236,75,19.7,72.7,76.78,76.78,11.32
293,ambon,25,ID,1591217236,78,-3.7,128.18,80.35,80.35,14.88
294,ilulissat,62,GL,1591217236,74,69.22,-51.1,35.6,35.6,6.93
295,paarl,96,ZA,1591217236,77,-33.73,18.98,60.8,59.2,13.87
296,paamiut,99,GL,1591217117,98,61.99,-49.67,43.12,43.12,4.76
297,kavaratti,100,IN,1591217236,76,10.57,72.64,84.87,84.87,16.58
298,guarapari,40,BR,1591217153,88,-20.67,-40.5,73.4,73.2,9.17
299,masakin,20,TN,1591217236,69,35.73,10.58,75.99,73.78,12.75
300,timizart,0,DZ,1591217236,64,36.8,4.27,66.07,66.07,3.6
301,nome,97,US,1591216947,62,64.5,-165.41,61.0,61.0,8.99
302,inongo,90,CD,1591217236,86,-1.95,18.27,72.34,72.34,0.85
303,kita,100,ML,1591217236,30,13.03,-9.49,93.63,93.63,5.84
304,north valley,20,US,1591217111,22,35.17,-106.62,91.99,89.44,6.93
305,pimentel,5,PE,1591217236,60,-6.84,-79.93,75.2,75.2,24.16
306,dicabisagan,4,PH,1591217237,80,17.08,122.42,80.17,80.17,5.64
307,grand gaube,100,MU,1591217237,70,-20.01,57.66,73.0,73.0,10.0
308,rio brilhante,77,BR,1591217237,97,-21.8,-54.55,65.41,65.41,5.1
309,kuressaare,28,EE,1591217237,62,58.25,22.5,59.0,59.0,3.36
310,bonavista,32,CA,1591217237,63,48.65,-53.11,52.0,52.0,10.0
311,naze,40,JP,1591217237,100,28.37,129.48,77.0,77.0,12.75
312,murray bridge,0,AU,1591217237,94,-35.12,139.27,42.01,37.96,2.93
313,dunedin,100,NZ,1591217074,94,-45.87,170.5,48.99,47.91,18.03
314,port hardy,75,CA,1591217100,76,50.7,-127.42,53.6,53.6,6.93
315,esperance,9,AU,1591217237,81,-33.87,121.9,51.8,51.8,14.99
316,deniliquin,0,AU,1591217237,90,-35.53,144.97,35.01,35.01,4.09
317,neryungri,98,RU,1591217237,75,56.67,124.65,46.06,46.06,2.46
318,boyolangu,100,ID,1591217237,89,-8.12,111.89,75.83,75.83,5.5
319,parati,40,BR,1591217237,53,-23.22,-44.71,73.4,73.4,4.7
320,qaqortoq,75,GL,1591217237,59,60.72,-46.03,60.8,60.8,5.82
321,alyangula,5,AU,1591217238,100,-13.85,136.42,59.0,59.0,15.1
322,sept-iles,75,CA,1591216993,61,50.2,-66.38,48.2,47.7,12.75
323,bud,97,US,1591217238,57,39.45,-86.18,88.0,86.99,10.2
324,goderich,13,CA,1591217148,90,43.75,-81.72,66.99,63.97,3.0
325,panzhihua,57,CN,1591217238,77,26.59,101.71,68.14,68.14,1.83
326,ancud,28,CL,1591217238,66,-41.87,-73.82,52.0,51.89,5.82
327,kjollefjord,75,NO,1591217238,75,70.95,27.35,44.6,44.6,4.7
328,raudeberg,100,NO,1591217238,93,61.99,5.14,48.99,48.99,22.88
329,mayumba,99,GA,1591217238,89,-3.43,10.66,77.27,77.27,8.08
330,beloha,0,MG,1591217210,83,-25.17,45.05,63.5,63.5,8.12
331,pundaguitan,100,PH,1591217238,68,6.37,126.17,83.91,83.91,3.89
332,whyalla,0,AU,1591217238,93,-33.03,137.58,39.2,39.2,7.23
333,farmington,1,US,1591217136,13,36.73,-108.22,91.99,90.64,4.7
334,mtambile,49,TZ,1591217239,80,-5.38,39.7,78.44,78.44,15.01
335,los llanos de aridane,40,ES,1591217239,78,28.66,-17.92,71.6,66.96,2.24
336,dwarka,7,IN,1591217239,85,22.24,68.97,83.43,83.43,14.83
337,doka,15,SD,1591217239,44,13.52,35.77,82.6,82.6,10.27
338,santa lucia,40,ES,1591217239,73,27.91,-15.54,73.4,72.66,3.36
339,tautira,75,PF,1591217239,88,-17.73,-149.15,73.4,73.2,8.05
340,lancaster,1,US,1591217239,55,40.25,-76.25,87.01,84.76,6.93
341,antalaha,87,MG,1591217239,82,-14.9,50.28,74.01,74.01,9.84
342,tirlyanskiy,99,RU,1591217239,92,54.21,58.58,51.39,51.39,3.09
343,aquiraz,20,BR,1591217155,66,-3.9,-38.39,84.2,84.2,12.75
344,san carlos,5,VE,1591217239,54,9.66,-68.58,88.92,88.92,4.54
345,pangnirtung,40,CA,1591217239,80,66.15,-65.71,39.2,39.2,8.05
346,kattivakkam,99,IN,1591217018,70,13.22,80.32,87.8,86.85,6.93
347,hvolsvollur,81,IS,1591217239,85,63.75,-20.22,50.0,50.0,11.01
348,nikolayevskaya,67,RU,1591217239,85,47.61,41.5,55.9,55.9,8.28
349,upernavik,0,GL,1591217115,92,72.79,-56.15,30.97,30.97,6.69
350,amapa,80,BR,1591217240,96,1.0,-52.0,76.39,76.39,3.62
351,san-pedro,63,CI,1591217240,86,4.75,-6.64,79.5,79.5,5.26
352,havelock,0,US,1591217240,73,34.88,-76.9,81.0,78.75,3.0
353,manta,75,EC,1591217240,69,-0.95,-80.73,80.6,80.6,11.41
354,sorland,81,NO,1591217240,78,67.67,12.69,44.4,44.4,19.8
355,meulaboh,100,ID,1591217114,84,4.14,96.13,75.69,75.69,4.54
356,novopokrovka,18,UA,1591217240,86,49.84,36.55,54.66,54.66,4.59
357,saint-pierre,1,RE,1591217193,68,-21.34,55.48,66.2,60.21,6.93
358,bengkulu,100,ID,1591217240,87,-3.8,102.27,76.23,76.23,5.44
359,wicklow,98,IE,1591217240,54,53.0,-6.42,53.6,52.38,11.41
360,avera,1,US,1591217240,55,33.19,-82.53,86.0,84.42,8.05
361,provideniya,0,RU,1591217240,75,64.38,-173.3,41.0,41.0,8.95
362,half moon bay,1,US,1591217127,77,37.46,-122.43,97.0,76.03,13.87
363,podporozhye,98,RU,1591217240,67,60.91,34.17,52.47,52.47,6.4
364,ostrovnoy,5,RU,1591217101,67,68.05,39.51,52.99,52.99,13.94
365,poum,95,NC,1591217240,85,-20.23,164.02,75.2,75.2,18.99
366,plaeng yao,100,TH,1591217241,83,13.58,101.28,82.99,82.99,4.52
367,komsomolskiy,56,UZ,1591217241,31,40.43,71.72,78.8,78.8,2.24
368,kalga,100,RU,1591217241,63,50.93,118.9,50.85,50.85,1.36
369,yulara,0,AU,1591217155,75,-25.24,130.99,42.8,42.8,5.82
370,oranjestad,40,AW,1591217192,66,12.52,-70.03,86.0,86.0,24.16
371,yumen,12,CN,1591217157,24,40.28,97.2,68.72,68.72,7.36
372,denpasar,40,ID,1591217241,94,-8.65,115.22,80.6,80.6,4.7
373,omsukchan,0,RU,1591216948,56,62.53,155.8,50.05,50.05,3.4
374,cabedelo,4,BR,1591217241,78,-6.98,-34.83,80.6,80.6,9.17
375,bathsheba,40,BB,1591217241,66,13.22,-59.52,86.0,86.0,19.46
376,gunjur,0,GM,1591217241,74,13.2,-16.73,78.8,78.8,13.87
377,fukuma,40,JP,1591217241,94,33.77,130.47,70.0,68.67,2.24
378,carutapera,14,BR,1591217241,93,-1.2,-46.02,77.29,77.29,7.4
379,khuzdar,0,PK,1591217241,49,27.74,66.64,78.12,78.12,2.82
380,ulladulla,75,AU,1591217241,70,-35.35,150.47,46.4,39.65,10.29
381,namibe,0,AO,1591216971,80,-15.2,12.15,71.28,71.28,3.36
382,novikovo,0,RU,1591217242,89,51.15,37.89,53.42,53.42,3.2
383,korla,63,CN,1591217242,66,41.76,86.15,77.0,77.0,1.99
384,eureka,20,US,1591217242,82,40.8,-124.16,66.99,63.43,16.11
385,elliot,100,ZA,1591217242,50,-31.33,27.85,48.22,48.22,2.39
386,lukh,97,RU,1591217242,87,57.01,42.26,55.63,55.63,12.53
387,uray,8,RU,1591217242,71,60.12,64.78,39.97,39.97,1.61
388,vao,90,NC,1591217242,88,-22.67,167.48,72.75,72.75,15.86
389,muros,90,ES,1591217242,85,42.78,-9.06,64.0,63.46,8.16
390,batemans bay,0,AU,1591217242,98,-35.72,150.18,37.99,37.99,5.14
391,doha,0,QA,1591217242,50,25.29,51.53,98.01,94.32,5.82
392,georgiyevka,0,KZ,1591217242,49,43.04,74.71,69.8,69.8,4.47
393,plettenberg bay,100,ZA,1591217014,83,-34.05,23.37,59.4,59.4,3.78
394,pemangkat,80,ID,1591217242,87,1.17,108.97,78.35,78.35,0.54
395,kutum,36,SD,1591217243,16,14.2,24.67,79.3,79.3,9.24
396,reading,100,GB,1591217243,82,51.46,-0.97,57.0,56.21,1.01
397,balad,0,IQ,1591217243,18,34.02,44.15,82.72,82.72,12.64
398,mehamn,75,NO,1591217243,75,71.04,27.85,44.6,44.6,4.7
399,semey,100,KZ,1591217243,62,50.41,80.23,59.45,59.45,2.68
400,petrovsk,100,RU,1591217243,89,52.31,45.39,61.25,61.25,14.0
401,kavieng,99,PG,1591217243,75,-2.57,150.8,82.81,82.81,10.76
402,mandalgovi,100,MN,1591217243,72,45.76,106.27,49.62,49.62,2.64
403,chato,74,TZ,1591217243,63,-2.64,31.77,70.41,70.41,5.01
404,pontianak,97,ID,1591217243,94,-0.03,109.33,76.1,76.1,3.09
405,agadez,9,NE,1591217243,13,19.75,10.25,95.61,95.61,11.48
406,naron,4,ES,1591217243,87,43.52,-8.15,63.0,60.6,3.36
407,aloleng,89,PH,1591217243,69,16.13,119.78,83.86,83.86,2.21
408,kloulklubed,75,PW,1591217243,94,7.04,134.26,77.0,77.0,6.93
409,ramnagar,44,IN,1591217243,48,29.4,79.12,78.96,78.96,6.4
410,ulaangom,100,MN,1591217244,59,49.98,92.07,55.4,55.4,4.47
411,sayyan,100,YE,1591217244,76,15.17,44.32,61.16,61.16,1.39
412,ko samui,99,TH,1591216986,74,9.54,99.94,83.55,83.55,12.03
413,lorengau,97,PG,1591217244,78,-2.02,147.27,81.7,81.7,2.55
414,broken hill,0,AU,1591217244,93,-31.95,141.43,35.6,35.6,5.82
415,tupik,100,RU,1591217244,67,54.43,119.93,46.8,46.8,0.85
416,latung,71,PH,1591217244,72,5.5,120.88,83.93,83.93,6.82
417,sereflikochisar,100,TR,1591217244,58,38.94,33.54,61.92,61.92,8.66
418,acapulco,40,MX,1591217147,70,16.86,-99.89,84.2,84.2,11.41
419,tsaratanana,30,MG,1591217244,68,-16.78,47.65,67.28,67.28,13.78
420,lekoni,91,GA,1591217244,77,-1.58,14.26,77.61,77.61,2.37
421,husyatyn,62,UA,1591217244,82,49.07,26.21,53.01,53.01,4.0
422,sawakin,0,SD,1591217245,36,19.11,37.33,86.05,86.05,6.06
423,caravelas,21,BR,1591217245,89,-17.71,-39.25,74.73,74.73,6.44
424,taksimo,92,RU,1591217245,56,56.34,114.88,51.57,51.57,0.51
425,shingu,100,JP,1591217245,85,33.73,135.98,65.52,65.52,3.56
426,san cristobal,40,VE,1591217245,52,7.77,-72.22,91.4,91.4,10.29
427,fort-de-france,40,MQ,1591217173,66,14.61,-61.07,86.0,83.59,17.22
428,emba,63,KZ,1591217245,49,48.83,58.14,70.45,70.45,21.61
429,tornio,92,FI,1591217245,76,65.85,24.15,53.6,53.6,3.36
430,phan thiet,100,VN,1591217245,83,10.93,108.1,79.2,79.2,2.73
431,kathu,75,TH,1591217245,94,7.92,98.33,77.0,77.0,9.17
432,cravo norte,8,CO,1591217245,66,6.3,-70.2,86.76,86.76,7.63
433,vila franca do campo,75,PT,1591217102,93,37.72,-25.43,62.6,62.6,17.22
434,jiujiang,89,CN,1591217245,82,29.73,115.98,76.51,76.51,1.99
435,kilindoni,93,TZ,1591217245,77,-7.91,39.67,79.77,79.77,16.44
436,fairbanks,90,US,1591217089,81,64.84,-147.72,57.99,54.27,4.7
437,kushtagi,100,IN,1591217245,73,15.77,76.2,75.69,75.69,21.16
438,dingle,95,PH,1591217150,81,11.0,122.67,78.33,78.33,2.57
439,bilma,1,NE,1591217246,13,18.69,12.92,93.58,93.58,6.73
440,nazarovo,100,RU,1591217246,87,56.01,90.39,41.65,41.65,5.08
441,mushie,100,CD,1591217246,86,-3.02,16.9,74.84,74.84,3.11
442,altamira,16,BR,1591217246,92,-3.2,-52.21,78.89,78.89,3.47
443,jalapa,28,MX,1591217006,63,19.53,-96.92,77.65,77.65,5.35
444,kamina,0,CD,1591217246,62,-8.74,24.99,65.46,65.46,1.97
445,botwood,98,CA,1591217246,67,49.15,-55.35,53.01,53.01,1.99
446,guiong,86,PH,1591217246,79,6.42,122.03,78.94,78.94,2.39
447,renqiu,3,CN,1591217246,19,38.7,116.09,75.31,75.31,12.71
448,nyurba,25,RU,1591217246,53,63.28,118.33,56.07,56.07,3.36
449,mountain home,40,US,1591216987,21,43.13,-115.69,84.2,84.2,12.75
450,jumla,76,NP,1591217246,63,29.27,82.18,51.66,51.66,1.01
451,chingirlau,46,KZ,1591217246,55,51.09,54.08,70.77,70.77,17.47
452,riyadh,20,SA,1591217194,14,24.69,46.72,98.6,98.6,6.93
453,san francisco,1,US,1591217043,57,37.77,-122.42,87.8,79.07,4.7
454,sabang,100,ID,1591217247,77,5.89,95.32,83.16,83.16,12.77
455,george,100,ZA,1591217247,93,-33.96,22.46,59.0,59.0,4.7
456,concordia,40,AR,1591217247,59,-31.39,-58.02,63.0,62.82,11.41
457,kedrovyy,71,RU,1591217247,81,56.17,91.82,44.6,44.6,4.47
458,armidale,2,AU,1591217247,79,-30.52,151.65,30.99,30.99,4.81
459,nicoya,75,CR,1591217103,74,10.15,-85.45,84.2,84.2,4.7
460,abu dhabi,0,AE,1591216978,66,24.47,54.37,91.4,90.37,4.7
461,det udom,100,TH,1591217247,94,14.91,105.08,77.0,77.0,2.24
462,lima,90,PE,1591217247,72,-12.04,-77.03,68.0,68.0,12.75
463,kiunga,92,PG,1591217247,99,-6.12,141.29,73.08,73.08,1.54
464,bairiki,40,KI,1591217247,88,1.33,172.98,80.6,80.6,3.36
465,santa comba,24,ES,1591217248,73,43.03,-8.81,64.0,62.64,1.01
466,loandjili,75,CG,1591217248,94,-4.76,11.86,78.8,78.8,6.93
467,kalmunai,19,LK,1591217248,74,7.42,81.82,79.72,79.72,6.02
468,dali,13,CN,1591217248,84,25.7,100.18,59.7,59.7,5.32
469,chifeng,0,CN,1591217248,55,42.27,118.96,54.97,54.97,14.12
470,kovur,100,IN,1591217248,68,14.48,79.98,86.5,86.5,5.7
471,vikulovo,100,RU,1591217248,90,56.82,70.61,44.71,44.71,5.48
472,smirnykh,84,RU,1591217248,89,49.75,142.83,53.44,53.44,0.74
473,nagtipunan,15,PH,1591217248,84,16.22,121.6,74.39,74.39,1.21
474,hualmay,39,PE,1591217248,71,-11.1,-77.61,68.81,68.81,13.56
475,fairfield,20,US,1591217248,73,41.27,-73.32,75.2,74.39,9.17
476,seoul,75,KR,1591217047,94,37.57,126.98,68.0,67.41,6.93
477,zhuji,40,CN,1591217248,94,29.72,120.24,75.2,75.15,2.24
478,dongzhen,76,CN,1591217248,89,22.38,110.94,76.68,76.68,3.27
479,srednekolymsk,0,RU,1591217248,51,67.45,153.68,51.8,51.8,6.15
480,morgan city,90,US,1591217249,94,29.7,-91.21,78.8,76.82,4.7
481,shuangyang,75,CN,1591217249,87,43.52,125.67,53.6,53.6,4.47
482,katsuura,100,JP,1591217249,94,35.13,140.3,70.0,68.9,7.49
483,tilichiki,10,RU,1591217249,76,60.47,166.1,43.18,43.18,5.91
484,iqaluit,75,CA,1591216996,56,63.75,-68.51,42.8,42.39,16.11
485,tshane,0,BW,1591217249,37,-24.02,21.87,57.02,57.02,7.34
486,pingzhuang,0,CN,1591217249,55,42.04,119.29,55.62,55.62,13.51
487,great falls,1,US,1591217249,26,47.5,-111.3,73.4,72.09,19.46
488,mahajanga,3,MG,1591217249,57,-15.72,46.32,76.41,76.41,13.13
489,saldanha,81,ZA,1591217249,87,-33.01,17.94,53.6,53.6,5.82
490,hamilton,20,US,1591217249,48,39.18,-84.53,90.0,88.34,13.87
491,sao joao da barra,0,BR,1591217249,73,-21.64,-41.05,75.2,74.3,6.93
492,angoche,0,MZ,1591217249,83,-16.23,39.91,72.21,72.21,6.51
493,kieta,69,PG,1591217249,76,-6.22,155.63,80.74,80.74,1.16
494,emborion,2,GR,1591217249,62,40.48,21.55,57.2,57.2,4.7
495,bejar,61,ES,1591217250,70,40.39,-5.76,66.0,66.0,1.01
496,mathbaria,56,BD,1591217250,83,22.29,89.96,82.62,82.62,9.31
497,vestmannaeyjar,69,IS,1591217250,82,63.44,-20.27,50.29,50.29,14.76
498,chernyshevskiy,32,RU,1591217250,52,63.01,112.47,53.15,53.15,4.61
499,rypefjord,75,NO,1591217250,65,70.63,23.67,44.6,44.6,3.36
500,pangkalanbuun,61,ID,1591217250,88,-2.68,111.62,76.86,76.86,3.33
501,viedma,0,AR,1591217127,57,-40.81,-63.0,48.45,48.45,7.16
502,pangai,20,TO,1591217250,69,-19.8,-174.35,80.6,80.6,16.11
503,flin flon,90,CA,1591217250,82,54.77,-101.86,55.4,55.4,10.29
504,freeport,1,US,1591217021,65,40.66,-73.58,82.0,75.67,10.29
505,alofi,75,NU,1591217250,73,-19.06,-169.92,77.0,77.0,14.99
506,podujevo,75,XK,1591217250,58,42.91,21.19,59.0,55.94,8.05
507,kuloy,77,RU,1591217250,76,61.03,42.49,47.93,47.93,5.28
508,alad,4,PH,1591217251,67,12.62,122.25,84.78,84.78,4.25
509,arcos de la frontera,20,ES,1591217251,77,36.75,-5.81,69.8,68.68,8.05
510,fare,12,PF,1591217251,67,-16.7,-151.02,80.42,80.42,8.48
511,aksu,100,CN,1591217251,30,41.12,80.26,74.88,74.88,7.45
512,kidal,98,ML,1591217251,13,18.44,1.41,99.21,99.21,5.1
513,pasni,0,PK,1591217251,91,25.26,63.47,82.54,82.54,13.15
514,alto araguaia,1,BR,1591217251,63,-17.31,-53.22,71.13,71.13,3.71
515,laguna,1,US,1591216994,23,38.42,-121.42,100.99,98.11,5.82
516,namatanai,89,PG,1591217251,75,-3.67,152.43,81.63,81.63,5.12
517,abrau-dyurso,40,RU,1591217251,87,44.69,37.59,60.8,60.4,11.18
518,big bend,0,SZ,1591217251,93,-26.82,31.93,55.4,55.4,1.12
519,oltina,7,RO,1591217251,81,44.17,27.67,54.0,53.78,9.17
520,itoman,20,JP,1591217199,94,26.12,127.67,80.6,80.42,17.22
521,chipinge,0,ZW,1591217251,97,-20.19,32.62,51.55,51.55,3.49
522,husavik,80,IS,1591217229,81,66.04,-17.34,42.8,42.8,8.05
523,saint-francois,87,FR,1591217251,82,46.42,3.91,60.8,60.8,2.24
524,yuzhnyy,20,RU,1591217252,61,53.25,83.69,48.2,48.2,6.71
525,syamzha,63,RU,1591217252,89,60.02,41.06,47.62,47.62,5.75
526,dongkan,64,CN,1591217252,83,34.0,119.83,72.7,72.7,7.78
527,ust-kuyga,8,RU,1591217252,71,70.02,135.6,39.72,39.72,4.5
528,sterling,1,US,1591217054,38,39.01,-77.43,95.0,92.35,11.41
529,morros,91,BR,1591217252,64,-9.45,-46.3,79.77,79.77,0.67
530,loa janan,47,ID,1591217252,97,-0.58,117.09,73.56,73.56,1.19
531,parrita,75,CR,1591217252,78,9.52,-84.32,75.2,72.28,13.87
532,ewa beach,40,US,1591217252,51,21.32,-158.01,86.0,85.01,14.99
533,tazovskiy,93,RU,1591217252,75,67.47,78.7,40.71,40.71,13.4
534,celendin,75,PE,1591217214,49,-6.87,-78.15,69.8,69.8,9.17
535,maceio,20,BR,1591217002,88,-9.67,-35.74,78.8,78.8,5.82
536,oranjemund,100,NA,1591217252,83,-28.55,16.43,57.9,57.9,5.5
537,palmer,75,US,1591217252,57,42.16,-72.33,77.0,75.63,6.93
538,pacific grove,1,US,1591217092,56,36.62,-121.92,91.0,80.89,5.82
539,viransehir,0,TR,1591217253,54,37.24,39.76,66.52,66.52,6.64
540,coro,7,VE,1591217253,62,11.4,-69.67,85.59,85.59,19.75
541,arrecife,20,ES,1591217253,69,28.96,-13.55,75.2,75.2,11.41
542,marsaxlokk,7,MT,1591217253,77,35.84,14.54,69.01,67.28,2.24
543,taoudenni,81,ML,1591217253,17,22.68,-3.98,101.1,101.1,25.3
544,vankleek hill,90,CA,1591217253,93,45.52,-74.65,59.0,57.81,6.93
545,thunder bay,40,CA,1591217253,33,48.4,-89.32,75.99,74.61,12.75
546,tobol,16,KZ,1591217253,72,52.68,62.58,52.11,52.11,8.46
547,troitskoye,89,RU,1591217253,74,52.98,84.68,48.78,48.78,5.75
548,lucapa,26,AO,1591217253,49,-8.42,20.74,70.74,70.74,2.8
549,severo-kurilsk,100,RU,1591217016,80,50.68,156.12,47.32,47.32,13.56
550,klyuchi,76,RU,1591217188,52,52.27,79.17,54.39,54.39,9.69
551,portland,75,US,1591217204,52,45.52,-122.68,70.0,67.51,9.17
552,hirara,1,JP,1591216976,85,24.8,125.28,82.0,82.0,13.76
553,turukhansk,93,RU,1591217253,66,65.82,87.98,50.36,50.36,10.2
554,beringovskiy,100,RU,1591217254,74,63.05,179.32,42.96,42.96,2.77
555,shabo,49,UA,1591217254,93,46.13,30.39,55.4,55.4,6.71
556,buta,96,CD,1591217254,97,2.79,24.73,69.57,69.57,1.68
557,puerto armuelles,99,PA,1591217254,80,8.28,-82.87,70.0,70.0,8.16
558,tucuma,0,BR,1591217254,80,-0.18,-50.05,80.4,80.4,8.37
559,olinda,20,BR,1591217254,78,-8.01,-34.86,82.4,82.4,9.17
560,sikeston,1,US,1591217254,46,36.88,-89.59,91.4,89.46,9.28
561,mardin,0,TR,1591217254,44,37.31,40.74,62.94,62.94,6.2
562,hurricane,1,US,1591217254,11,37.18,-113.29,100.0,97.34,9.17
563,kyaikkami,100,MM,1591217254,80,16.08,97.57,82.72,82.72,8.97
564,phalombe,17,MW,1591217254,92,-15.81,35.65,60.49,60.49,3.71
565,bandar-e anzali,0,IR,1591217254,66,37.47,49.46,74.46,74.46,11.03
566,christchurch,97,NZ,1591217163,93,-43.53,172.63,52.0,50.34,11.41
567,anadyr,100,RU,1591217254,62,64.75,177.48,53.6,53.26,4.47
568,ampanihy,0,MG,1591217255,70,-24.7,44.75,63.9,63.9,4.65
569,vysokogornyy,98,RU,1591217255,93,50.12,139.15,47.77,47.77,3.74
570,karratha,0,AU,1591217182,48,-20.74,116.85,70.93,70.93,12.64
571,suchil,21,MX,1591219385,17,23.63,-103.92,85.73,85.73,15.23
572,conakry,85,GN,1591219385,80,9.54,-13.68,82.53,82.53,6.35
573,ushuaia,75,AR,1591219195,60,-54.8,-68.3,42.8,42.8,8.05
574,kirakira,97,SB,1591219385,74,-10.45,161.92,82.51,82.51,4.59
575,east london,100,ZA,1591219385,78,-33.02,27.91,65.39,65.39,6.89
576,warrington,91,GB,1591219385,71,53.39,-2.58,54.0,52.12,4.7
577,shido,75,JP,1591219385,88,34.32,134.17,66.2,65.73,5.82
578,carayao,29,PY,1591219385,71,-25.18,-56.4,66.96,66.96,1.97
579,kaili,56,ID,1591219385,89,-3.46,120.21,68.18,68.18,1.86
580,avarua,14,CK,1591219385,69,-21.21,-159.78,77.0,77.0,12.75
581,jamestown,40,US,1591219280,69,42.1,-79.24,75.99,74.7,17.22
582,plouzane,75,FR,1591219385,93,48.38,-4.62,57.2,56.64,6.93
583,puerto ayora,40,EC,1591219385,61,-0.74,-90.35,82.4,79.02,18.34
584,port alfred,100,ZA,1591219385,94,-33.59,26.89,61.0,61.0,1.01
585,broome,75,US,1591219385,64,42.25,-75.83,75.99,72.73,6.93
586,pevek,68,RU,1591219386,76,69.7,170.31,39.6,39.6,3.44
587,port macquarie,51,AU,1591219386,77,-31.43,152.92,55.99,55.99,1.01
588,nikolskoye,100,RU,1591219386,62,59.7,30.79,59.0,57.07,2.24
589,albany,74,US,1591219386,49,42.6,-73.97,80.01,78.4,1.01
590,busselton,0,AU,1591219386,80,-33.65,115.33,48.0,46.6,6.02
591,hobart,20,AU,1591219224,80,-42.88,147.33,44.01,40.8,8.05
592,dikson,99,RU,1591219386,98,73.51,80.55,31.26,31.26,14.85
593,topchikha,20,RU,1591219386,70,52.82,83.12,46.4,46.4,6.71
594,dubbo,0,AU,1591219386,100,-32.25,148.62,39.2,39.2,9.17
595,hithadhoo,89,MV,1591219386,65,-0.6,73.08,84.24,84.24,6.98
596,puri,40,IN,1591219386,88,19.8,85.85,78.8,78.8,14.41
597,bluff,100,NZ,1591219386,79,-46.6,168.33,47.41,47.41,22.91
598,haines junction,96,CA,1591219386,44,60.75,-137.51,52.61,52.61,8.46
599,punta arenas,75,CL,1591219179,70,-53.15,-70.92,46.4,46.2,18.34
600,butaritari,84,KI,1591219386,77,3.07,172.79,82.22,82.22,6.73
601,koslan,18,RU,1591219387,54,63.46,48.9,50.4,50.4,3.31
602,rikitea,100,PF,1591219384,80,-23.12,-134.97,75.7,75.7,18.57
603,dhadar,22,IN,1591219387,31,28.33,75.06,90.77,90.77,5.06
604,sechura,52,PE,1591219387,57,-5.56,-80.82,77.16,77.16,16.93
605,saint-philippe,47,RE,1591219387,64,-21.36,55.77,69.8,62.73,5.82
606,mayo,1,US,1591219142,46,38.89,-76.51,91.99,89.91,10.29
607,nantucket,1,US,1591219325,87,41.28,-70.1,63.0,61.45,14.99
608,oussouye,17,SN,1591219387,83,12.48,-16.55,80.6,79.68,9.17
609,chuy,17,UY,1591219387,77,-33.7,-53.46,51.55,51.55,4.38
610,gat,0,IL,1591219387,53,31.61,34.76,70.0,66.97,4.0
611,thompson,75,CA,1591219387,48,55.74,-97.86,60.8,60.8,5.82
612,mar del plata,40,AR,1591219260,71,-38.0,-57.56,50.0,49.66,8.05
613,holalkere,100,IN,1591219387,76,14.03,76.18,73.27,73.27,10.31
614,mataura,100,NZ,1591219387,92,-46.19,168.86,44.1,44.1,7.49
615,clyde river,90,CA,1591219387,100,70.47,-68.59,28.4,28.4,5.82
616,kahului,40,US,1591219323,49,20.89,-156.47,89.6,82.56,19.46
617,arraial do cabo,40,BR,1591219388,88,-22.97,-42.03,73.4,73.4,5.82
618,szubin,0,PL,1591219343,71,53.01,17.74,53.6,53.6,4.7
619,ponta do sol,40,PT,1591219388,68,32.67,-17.1,68.0,64.04,11.41
620,roura,20,GF,1591219388,78,4.73,-52.33,82.4,82.4,6.93
621,kozhva,0,RU,1591219388,66,65.11,57.05,46.58,46.58,3.0
622,victoria,91,HK,1591219318,79,22.29,114.16,84.0,83.03,8.99
623,san patricio,40,MX,1591219388,83,19.22,-104.7,80.6,80.6,23.04
624,labytnangi,79,RU,1591219388,58,66.66,66.42,45.37,45.37,2.71
625,kapaa,20,US,1591219388,78,22.08,-159.32,82.0,81.39,11.41
626,puerto baquerizo moreno,75,EC,1591219388,78,-0.9,-89.6,78.8,78.8,13.87
627,moussoro,0,TD,1591219388,35,13.64,16.49,91.44,91.44,12.84
628,hermanus,82,ZA,1591219388,84,-34.42,19.23,59.0,59.0,3.0
629,kuala terengganu,20,MY,1591219388,94,5.33,103.14,78.8,78.42,3.36
630,slave lake,40,CA,1591219388,58,55.28,-114.77,57.2,57.2,25.28
631,samarai,61,PG,1591219385,86,-10.62,150.67,79.99,79.99,6.78
632,hilo,1,US,1591219388,54,19.73,-155.09,84.2,79.2,8.05
633,airai,100,TL,1591219389,100,-8.93,125.41,54.81,54.81,4.56
634,cap malheureux,100,MU,1591219389,70,-19.98,57.61,73.0,73.0,7.0
635,mahebourg,75,MU,1591219389,69,-20.41,57.7,73.4,73.4,14.99
636,klaksvik,5,FO,1591219389,87,62.23,-6.59,44.6,44.6,6.93
637,luderitz,27,NA,1591219389,87,-26.65,15.16,55.4,55.4,2.24
638,leningradskiy,37,RU,1591219389,68,69.38,178.42,42.06,42.06,5.75
639,carnarvon,0,AU,1591219389,42,-24.87,113.63,71.38,71.38,9.22
640,yellowknife,75,CA,1591219389,49,62.46,-114.35,48.99,48.33,4.7
641,khatanga,11,RU,1591219389,51,71.97,102.5,48.79,48.79,9.15
642,robertsport,100,LR,1591219389,80,6.75,-11.37,81.79,81.79,6.91
643,dongsheng,16,CN,1591219389,28,39.82,109.98,61.16,61.16,1.14
644,halifax,90,CA,1591219378,100,44.65,-63.57,48.99,46.6,6.93
645,shubarshi,59,KZ,1591219389,47,48.59,57.19,72.23,72.23,17.74
646,atuona,4,PF,1591219389,75,-9.8,-139.03,80.98,80.98,15.26
647,toila,100,EE,1591219389,82,59.42,27.5,53.94,53.94,4.32
648,olafsvik,61,IS,1591219389,84,64.89,-23.71,47.5,47.5,4.72
649,nishihara,40,JP,1591219390,88,26.18,127.76,80.6,80.46,12.75
650,haveli,50,PK,1591219390,35,30.45,73.7,89.19,89.19,5.55
651,bambous virieux,75,MU,1591219390,69,-20.34,57.76,73.4,73.22,14.99
652,sarakhs,0,IR,1591219390,28,36.54,61.16,80.6,80.6,2.24
653,baruun-urt,0,MN,1591219390,73,46.68,113.28,47.16,47.16,4.83
654,lavrentiya,0,RU,1591219390,67,65.58,-171.0,42.21,42.21,5.57
655,tabou,32,CI,1591219390,86,4.42,-7.35,79.57,79.57,6.73
656,longyearbyen,20,SJ,1591219390,69,78.22,15.64,37.4,37.4,3.36
657,thinadhoo,87,MV,1591219195,68,0.53,72.93,84.38,84.38,8.16
658,krasnoselkup,28,RU,1591219390,69,65.7,82.47,46.29,46.29,12.5
659,syracuse,1,IT,1591219390,63,37.09,15.28,64.4,61.09,5.82
660,lata,25,PT,1591219390,89,40.16,-8.33,66.0,64.0,3.02
661,gornyy,71,RU,1591219390,73,55.12,83.91,40.44,40.44,1.34
662,sydney,75,AU,1591219189,62,-33.87,151.21,51.8,50.23,16.11
663,fayaoue,71,NC,1591219391,83,-20.65,166.53,76.39,76.39,17.18
664,vaini,20,TO,1591219391,78,-21.2,-175.2,78.8,78.8,9.17
665,tasiilaq,100,GL,1591219391,60,65.61,-37.64,42.8,42.8,4.7
666,bredasdorp,96,ZA,1591219391,93,-34.53,20.04,57.2,57.2,2.24
667,narasannapeta,100,IN,1591219391,78,18.42,84.05,84.27,84.27,6.15
668,geraldton,0,AU,1591219391,58,-28.77,114.6,57.2,57.2,10.29
669,axim,5,GH,1591219391,84,4.87,-2.24,79.84,79.84,8.01
670,codrington,1,AU,1591219391,90,-38.27,141.97,40.64,40.64,5.01
671,torbay,75,CA,1591219391,58,47.67,-52.73,53.6,52.93,14.99
672,barrow,1,US,1591219239,80,71.29,-156.79,35.6,35.6,17.22
673,honiara,40,SB,1591219391,100,-9.43,159.95,75.2,75.2,1.68
674,padang,100,ID,1591219391,83,-0.95,100.35,77.9,77.9,2.55
675,cam ranh,20,VN,1591219391,74,11.92,109.16,86.0,86.0,8.05
676,port-cartier,75,CA,1591219391,61,50.03,-66.87,48.2,47.01,12.75
677,nanortalik,78,GL,1591219392,88,60.14,-45.24,48.36,48.36,4.56
678,zhigansk,66,RU,1591219392,51,66.77,123.37,50.65,50.65,10.4
679,vardo,75,NO,1591219392,87,70.37,31.11,42.8,42.8,8.05
680,comacchio,99,IT,1591219392,36,44.7,12.19,77.0,70.32,3.36
681,haverfordwest,83,GB,1591219167,76,51.8,-4.97,55.4,54.3,19.46
682,adrar,50,MR,1591219392,30,20.5,-10.07,89.67,89.67,13.31
683,khandyga,50,RU,1591219392,54,62.67,135.6,55.76,55.76,3.49
684,talnakh,9,RU,1591219392,75,69.49,88.4,44.6,44.6,17.9
685,georgetown,20,MY,1591219164,94,5.41,100.34,80.6,79.27,2.24
686,narsaq,54,GL,1591219392,62,60.92,-46.05,59.0,59.0,4.7
687,vanavara,100,RU,1591219392,73,60.34,102.28,49.91,49.91,3.09
688,san andres,90,CO,1591219211,88,12.58,-81.7,80.6,80.6,5.82
689,cape town,84,ZA,1591219209,87,-33.93,18.42,59.0,56.66,6.93
690,wagar,0,SD,1591219392,16,16.15,36.2,89.69,89.69,7.74
691,hambantota,71,LK,1591219393,85,6.12,81.12,78.13,78.13,13.06
692,saskylakh,100,RU,1591219393,59,71.92,114.08,47.89,47.89,7.43
693,buala,44,SB,1591219393,72,-8.14,159.59,82.85,82.85,4.18
694,san quintin,0,MX,1591219393,53,30.48,-115.95,75.69,75.69,9.37
695,mombetsu,28,JP,1591219393,79,44.35,143.35,57.0,57.0,1.99
696,kodiak,90,US,1591219393,81,57.79,-152.41,50.0,50.0,10.29
697,aklavik,5,CA,1591219393,37,68.22,-135.01,53.6,53.6,6.93
698,demerval lobao,31,BR,1591219393,58,-5.36,-42.68,87.8,87.8,3.36
699,daru,100,PG,1591219393,86,-9.08,143.21,77.9,77.9,18.75
700,coahuayana,20,MX,1591219393,66,18.73,-103.68,86.0,86.0,11.41
701,tuktoyaktuk,20,CA,1591219393,60,69.45,-133.04,41.0,41.0,12.75
702,ossora,94,RU,1591219393,71,59.24,163.07,45.48,45.48,2.59
703,fershampenuaz,95,RU,1591219393,75,53.52,59.81,54.45,54.45,5.99
704,saint george,1,US,1591219220,11,37.1,-113.58,100.0,98.6,9.17
705,bambanglipuro,53,ID,1591219393,87,-7.95,110.28,77.36,77.36,6.46
706,palaia fokaia,20,GR,1591219394,82,37.72,23.95,66.99,64.02,4.7
707,deputatskiy,100,RU,1591219394,77,69.3,139.9,38.62,38.62,4.7
708,port lincoln,99,AU,1591219394,78,-34.73,135.87,52.77,52.77,8.88
709,placido de castro,99,BR,1591219394,83,-10.34,-67.19,75.96,75.96,3.06
710,wasilla,1,US,1591219394,33,61.58,-149.44,62.6,62.08,2.55
711,kashi,81,CN,1591219394,23,39.45,75.98,75.2,75.2,13.42
712,dongli,40,CN,1591219394,100,23.57,116.82,78.8,78.8,2.24
713,new norfolk,8,AU,1591219394,77,-42.78,147.06,44.01,39.34,3.78
714,simpang,100,ID,1591219394,97,-1.27,104.08,74.3,74.3,3.31
715,rimbey,75,CA,1591219394,29,52.63,-114.24,60.8,58.08,20.8
716,nemuro,100,JP,1591219394,97,43.32,145.57,47.32,47.32,2.53
717,jambi,100,ID,1591219275,97,-1.6,103.62,73.98,73.98,2.51
718,port elizabeth,98,ZA,1591219394,93,-33.92,25.57,57.2,57.2,3.36
719,bubaque,0,GW,1591219394,76,11.28,-15.83,80.55,80.55,17.63
720,asmara,77,ER,1591219394,32,15.33,38.93,64.92,64.92,3.15
721,kirgiz-miyaki,100,RU,1591219394,87,53.63,54.8,54.46,54.46,7.29
722,tiksi,37,RU,1591219395,90,71.69,128.87,33.48,33.48,2.84
723,chokurdakh,51,RU,1591219395,65,70.63,147.92,41.45,41.45,9.22
724,wana,1,PK,1591219395,61,32.3,69.57,69.37,69.37,0.72
725,catamarca,0,AR,1591219395,53,-28.47,-65.79,57.99,54.36,1.99
726,sitka,75,US,1591219395,71,57.05,-135.33,51.8,51.8,5.57
727,kununurra,86,AU,1591219395,31,-15.77,128.73,57.2,57.2,1.12
728,owosso,1,US,1591219395,39,43.0,-84.18,84.0,82.62,10.29
729,pochutla,90,MX,1591219395,74,15.74,-96.47,82.4,82.4,8.01
730,qaanaaq,100,GL,1591219395,95,77.48,-69.36,29.89,29.89,5.55
731,camana,99,PE,1591219395,80,-16.62,-72.71,64.63,64.63,8.86
732,mount gambier,1,AU,1591219395,94,-37.83,140.77,33.8,33.8,3.53
733,souillac,75,MU,1591219395,69,-20.52,57.52,73.4,73.4,14.99
734,castro,69,BR,1591219395,96,-24.79,-50.01,58.23,58.23,4.7
735,singkang,20,MY,1591219395,83,2.1,102.8,80.6,80.33,2.24
736,ekhabi,100,RU,1591219396,97,53.51,142.97,37.38,37.38,10.13
737,bondo,100,CD,1591219396,98,3.81,23.69,69.4,69.4,3.13
738,hobyo,100,SO,1591219396,72,5.35,48.53,82.8,82.8,19.53
739,kumeny,2,RU,1591219396,78,58.11,49.92,47.12,47.12,7.65
740,faanui,0,PF,1591219396,68,-16.48,-151.75,79.68,79.68,6.15
741,quatre cocos,75,MU,1591219396,69,-20.21,57.76,73.4,73.2,14.99
742,baykit,100,RU,1591219396,79,61.67,96.37,49.89,49.89,2.53
743,osorno,0,CL,1591219396,76,-40.57,-73.15,51.8,51.8,1.68
744,athens,20,GR,1591219240,88,37.98,23.72,68.0,64.94,1.97
745,vanimo,100,PG,1591219396,84,-2.67,141.3,78.37,78.37,4.76
746,makakilo city,75,US,1591219247,52,21.35,-158.09,87.8,85.73,8.05
747,bethel,40,US,1591219396,65,41.37,-73.41,77.0,76.1,12.75
748,gunnedah,0,AU,1591219396,100,-30.98,150.25,33.8,33.8,2.24
749,kaitangata,100,NZ,1591219397,87,-46.28,169.85,46.0,46.0,14.0
750,southbridge,20,US,1591219397,60,42.08,-72.03,78.01,75.33,14.99
751,dawson,1,US,1591219397,55,31.77,-84.45,87.8,84.07,8.05
752,hay river,40,CA,1591219397,52,60.82,-115.8,44.6,44.6,13.87
753,sakaiminato,75,JP,1591219397,82,35.55,133.23,66.2,66.2,1.12
754,kruisfontein,100,ZA,1591219397,93,-34.0,24.73,55.45,55.45,3.49
755,norman wells,75,CA,1591219397,43,65.28,-126.83,51.8,51.8,5.82
756,cidreira,27,BR,1591219397,78,-30.18,-50.21,61.9,61.9,9.53
757,ballina,90,AU,1591219397,71,-28.87,153.57,55.4,52.25,10.29
758,snasa,100,NO,1591219397,85,64.25,12.38,54.52,54.52,6.62
759,ketchikan,75,US,1591219397,71,55.34,-131.65,53.6,53.6,16.11
760,college,75,US,1591219397,71,64.86,-147.8,59.0,55.29,5.82
761,canutama,55,BR,1591219397,84,-6.53,-64.38,82.51,82.51,2.3
762,nhulunbuy,2,AU,1591219397,66,-12.23,136.77,76.06,76.06,14.32
763,tenno,0,JP,1591219397,69,39.9,139.97,62.69,62.69,7.52
764,wuda,0,CN,1591219398,18,39.5,106.71,70.21,70.21,1.88
765,takoradi,0,GH,1591219398,85,4.88,-1.76,80.02,80.02,8.43
766,sola,100,VU,1591219398,82,-13.88,167.55,81.05,81.05,11.23
767,orlik,7,RU,1591219398,77,52.52,99.83,38.79,38.79,3.85
768,arman,0,RU,1591219398,60,59.7,150.17,49.08,49.08,2.46
769,pincher creek,1,CA,1591219140,25,49.48,-113.95,64.99,63.86,31.09
770,lucea,40,JM,1591219398,66,18.45,-78.17,87.8,87.39,25.28
771,japura,97,ID,1591219398,97,-0.32,102.35,75.09,75.09,4.29
772,flinders,27,AU,1591219398,61,-34.58,150.86,53.01,53.01,5.01
773,martapura,59,ID,1591219398,94,-3.42,114.85,74.5,74.5,2.04
774,san pedro,40,PH,1591219398,79,14.35,121.02,84.2,83.71,3.38
775,khasan,92,RU,1591219398,92,42.43,130.64,55.06,55.06,4.0
776,bergen,75,NO,1591219398,93,60.39,5.33,52.0,50.18,5.82
777,fortuna,1,US,1591219398,82,40.6,-124.16,64.99,62.15,13.87
778,den helder,90,NL,1591219144,76,52.96,4.76,60.01,57.9,11.41
779,cabo san lucas,5,MX,1591219158,48,22.89,-109.91,93.2,88.52,24.16
780,ojinaga,1,MX,1591219399,17,29.57,-104.42,100.4,99.77,4.5
781,faya,12,SA,1591219399,33,18.39,42.45,77.0,76.1,14.99
782,severnoye,87,RU,1591219399,88,56.35,78.36,39.0,39.0,5.3
783,karksi-nuia,20,EE,1591219399,97,58.1,25.56,47.32,47.32,5.19
784,richards bay,34,ZA,1591219399,84,-28.78,32.04,68.27,68.27,7.58
785,tura,100,IN,1591219399,96,25.52,90.22,73.38,73.38,6.78
786,lebu,0,CL,1591219399,75,-37.62,-73.65,53.13,53.13,12.3
787,salym,0,RU,1591219399,87,60.06,71.48,35.55,35.55,6.02
788,portales,40,US,1591219399,24,34.19,-103.33,93.0,92.28,8.05
789,reconquista,0,AR,1591219399,75,-29.15,-59.65,56.19,56.19,7.96
790,evanston,75,US,1591219399,39,42.04,-87.69,84.99,82.81,5.82
791,coihaique,60,CL,1591219399,28,-45.58,-72.07,44.6,44.6,6.93
792,smidovich,100,RU,1591219399,93,48.6,133.82,49.19,49.19,17.36
793,lompoc,1,US,1591219399,53,34.64,-120.46,81.0,77.13,16.11
794,gizo,92,SB,1591219399,71,-8.1,156.84,83.95,83.95,6.85
795,tuatapere,100,NZ,1591219400,86,-46.13,167.68,44.83,44.83,8.48
796,rawson,3,AR,1591219260,45,-43.3,-65.1,50.86,50.86,22.15
797,constitucion,8,CL,1591219400,77,-35.33,-72.42,54.39,54.39,5.86
798,ribeira grande,40,PT,1591219400,72,38.52,-28.7,64.4,64.4,21.92
799,mazara del vallo,15,IT,1591219400,82,37.66,12.59,68.0,63.45,5.82
800,lagoa,0,PT,1591219400,79,39.05,-27.98,62.64,62.64,23.67
801,port hueneme,1,US,1591219400,64,34.15,-119.2,80.6,73.04,10.29
802,petropavlovka,92,RU,1591219400,69,50.61,105.32,51.26,51.26,4.07
803,inirida,99,CO,1591219400,84,3.87,-67.92,82.85,82.85,2.15
804,rocha,92,UY,1591219400,85,-34.48,-54.33,47.25,47.25,3.8
805,jalu,0,LY,1591219400,31,29.03,21.55,74.62,74.62,15.3
806,manzhouli,95,CN,1591219400,64,49.6,117.43,53.17,53.17,4.38
807,asyut,24,EG,1591219400,39,27.18,31.18,84.2,84.2,2.24
808,rameswaram,100,IN,1591219401,82,9.28,79.3,84.02,84.02,27.72
809,colares,20,PT,1591219401,82,38.8,-9.45,69.01,66.43,4.7
810,camabatela,66,AO,1591219401,84,-8.19,15.38,66.16,66.16,2.64
811,cockburn town,75,TC,1591219401,66,21.46,-71.14,86.0,86.0,13.87
812,churapcha,0,RU,1591219401,58,62.0,132.43,55.69,55.69,5.21
813,masuguru,11,TZ,1591219401,66,-11.37,38.42,68.47,68.47,1.21
814,santa cruz,90,BO,1591219401,93,-17.8,-63.17,60.8,60.8,17.22
815,abha,35,SA,1591219401,33,18.22,42.51,77.0,76.05,14.99
816,kano,55,NG,1591219401,41,12.0,8.52,93.2,93.2,9.17
817,te anau,100,NZ,1591219401,87,-45.42,167.72,45.16,45.16,7.92
818,caucaia,0,BR,1591219402,74,-3.74,-38.65,82.4,82.2,9.17
819,koulikoro,100,ML,1591219402,25,14.0,-7.75,95.94,95.94,8.28
820,ahuimanu,20,US,1591219402,58,21.44,-157.84,87.8,85.3,12.75
821,choix,9,MX,1591219402,23,26.71,-108.32,105.73,105.73,9.4
822,matadi,3,CD,1591219402,88,-5.82,13.45,75.49,75.49,2.37
823,celestun,100,MX,1591219402,87,20.87,-90.4,79.03,79.03,19.46
824,praia da vitoria,75,PT,1591219402,88,38.73,-27.07,62.6,62.6,22.55
825,bonthe,96,SL,1591219402,85,7.53,-12.51,80.47,80.47,5.5
826,lamu,97,KE,1591219402,80,-2.27,40.9,79.16,79.16,16.98
827,smolenka,50,RU,1591219402,86,52.14,113.5,41.0,41.0,2.24
828,bollnas,68,SE,1591219402,78,61.35,16.39,47.05,47.05,3.96
829,priargunsk,100,RU,1591219402,71,50.37,119.1,50.18,50.18,1.72
830,oshawa,20,CA,1591219205,51,43.9,-78.85,80.6,79.52,16.11
831,saint-augustin,5,CA,1591219402,60,51.23,-58.65,47.41,47.41,20.96
832,iquitos,40,PE,1591219250,78,-3.75,-73.25,80.6,80.6,3.36
833,touros,20,BR,1591219402,88,-5.2,-35.46,78.8,78.8,6.93
834,sokolka,90,PL,1591219403,78,53.41,23.5,48.99,48.99,35.01
835,mormugao,90,IN,1591219403,83,15.4,73.8,82.4,82.4,11.41
836,hammerfest,75,NO,1591219403,75,70.66,23.68,42.8,42.8,2.24
837,kropotkin,0,RU,1591219403,91,45.44,40.58,55.81,55.81,6.69
838,okato,96,NZ,1591219403,83,-39.2,173.88,60.01,58.46,10.0
839,ningxiang,0,CN,1591219403,24,37.34,111.21,68.81,68.81,8.08
840,cherskiy,100,RU,1591219403,59,68.75,161.3,46.49,46.49,5.14
841,magdagachi,100,RU,1591219403,82,53.45,125.8,44.04,44.04,2.57
842,saint-ambroise,75,CA,1591219403,23,48.55,-71.33,64.0,63.34,13.87
843,hami,0,CN,1591219403,20,42.8,93.45,79.47,79.47,10.04
844,disna,21,BY,1591219403,95,55.57,28.2,49.39,49.39,7.78
845,marawi,45,PH,1591219403,88,8.0,124.29,77.0,77.0,5.01
846,gamba,100,GA,1591219403,88,-2.65,10.0,77.05,77.05,7.61
847,chapais,90,CA,1591219403,22,49.78,-74.85,59.0,59.0,12.75
848,guerrero negro,0,MX,1591219138,39,27.98,-114.06,80.94,80.94,15.19
849,saint anthony,1,US,1591219316,28,45.02,-93.22,84.0,82.26,9.17
850,andapa,85,MG,1591219403,88,-14.65,49.65,66.78,66.78,2.55
851,brae,100,GB,1591219404,70,60.4,-1.35,46.4,46.4,9.17
852,hasaki,75,JP,1591219404,100,35.73,140.83,68.0,68.0,5.82
853,stornoway,95,GB,1591219404,87,58.21,-6.39,48.99,48.52,5.82
854,weihai,0,CN,1591219404,70,37.5,122.11,66.36,66.36,7.02
855,doume,100,CM,1591219404,90,4.23,13.45,69.35,69.35,0.54
856,vila velha,40,BR,1591219240,88,-20.33,-40.29,73.4,73.18,6.93
857,ahipara,19,NZ,1591219404,83,-35.17,173.17,61.92,61.92,13.98
858,maragogi,17,BR,1591219404,86,-9.01,-35.22,77.77,77.77,4.34
859,isangel,40,VU,1591219404,88,-19.55,169.27,73.4,73.4,11.99
860,sfantu gheorghe,67,RO,1591219404,80,45.87,25.78,48.0,47.57,2.82
861,sao felix do xingu,80,BR,1591219404,84,-6.64,-51.99,78.13,78.13,3.18
862,samarinda,35,ID,1591219404,97,-0.5,117.15,73.67,73.67,0.96
863,shirgaon,100,IN,1591219404,75,19.7,72.7,76.78,76.78,11.32
864,ambon,25,ID,1591219404,78,-3.7,128.18,80.35,80.35,14.88
865,ilulissat,62,GL,1591219405,74,69.22,-51.1,35.6,35.6,5.82
866,paarl,96,ZA,1591219405,87,-33.73,18.98,57.0,55.81,6.93
867,paamiut,99,GL,1591219405,98,61.99,-49.67,43.12,43.12,4.76
868,kavaratti,100,IN,1591219405,76,10.57,72.64,84.87,84.87,16.58
869,guarapari,40,BR,1591219405,88,-20.67,-40.5,73.4,73.18,6.93
870,masakin,20,TN,1591219405,73,35.73,10.58,75.99,73.15,11.41
871,timizart,0,DZ,1591219405,64,36.8,4.27,66.07,66.07,3.6
872,nome,1,US,1591219405,81,64.5,-165.41,60.01,53.42,12.75
873,inongo,90,CD,1591219405,86,-1.95,18.27,72.34,72.34,0.85
874,kita,100,ML,1591219405,30,13.03,-9.49,93.63,93.63,5.84
875,north valley,20,US,1591219214,20,35.17,-106.62,90.0,88.99,5.82
876,pimentel,5,PE,1591219405,60,-6.84,-79.93,73.4,73.4,23.04
877,dicabisagan,4,PH,1591219405,80,17.08,122.42,80.17,80.17,5.64
878,grand gaube,100,MU,1591219405,70,-20.01,57.66,73.0,73.0,7.0
879,rio brilhante,77,BR,1591219405,97,-21.8,-54.55,65.41,65.41,5.1
880,kuressaare,28,EE,1591219406,67,58.25,22.5,57.2,57.2,3.36
881,bonavista,32,CA,1591219406,62,48.65,-53.11,52.0,52.0,8.01
882,naze,40,JP,1591219406,100,28.37,129.48,77.0,77.0,12.75
883,murray bridge,0,AU,1591219406,94,-35.12,139.27,43.0,39.99,2.93
884,dunedin,100,NZ,1591219160,93,-45.87,170.5,48.99,48.45,1.01
885,port hardy,75,CA,1591219406,76,50.7,-127.42,53.6,53.6,6.93
886,esperance,9,AU,1591219406,87,-33.87,121.9,50.0,50.0,16.11
887,deniliquin,0,AU,1591219406,91,-35.53,144.97,35.01,35.01,4.09
888,neryungri,98,RU,1591219406,75,56.67,124.65,46.06,46.06,2.46
889,boyolangu,100,ID,1591219406,89,-8.12,111.89,75.83,75.83,5.5
890,parati,40,BR,1591219111,53,-23.22,-44.71,73.4,73.4,4.7
891,qaqortoq,95,GL,1591219406,62,60.72,-46.03,59.0,59.0,4.7
892,alyangula,5,AU,1591219406,100,-13.85,136.42,59.0,59.0,15.1
893,sept-iles,75,CA,1591219406,61,50.2,-66.38,48.2,46.98,12.75
894,bud,97,US,1591219406,56,39.45,-86.18,88.0,87.03,10.2
895,goderich,13,CA,1591219407,80,43.75,-81.72,64.99,61.34,11.3
896,panzhihua,57,CN,1591219407,77,26.59,101.71,68.14,68.14,1.83
897,ancud,28,CL,1591219407,76,-41.87,-73.82,48.99,48.58,6.93
898,kjollefjord,75,NO,1591219407,75,70.95,27.35,44.6,44.6,4.7
899,raudeberg,100,NO,1591219407,93,61.99,5.14,48.99,48.99,22.88
900,mayumba,99,GA,1591219407,89,-3.43,10.66,77.27,77.27,8.08
901,beloha,0,MG,1591219407,83,-25.17,45.05,63.5,63.5,8.12
902,pundaguitan,100,PH,1591219407,68,6.37,126.17,83.91,83.91,3.89
903,whyalla,0,AU,1591219407,93,-33.03,137.58,37.4,37.4,4.7
904,farmington,1,US,1591219202,9,36.73,-108.22,91.99,91.67,4.7
905,mtambile,49,TZ,1591219407,80,-5.38,39.7,78.44,78.44,15.01
906,los llanos de aridane,90,ES,1591219407,73,28.66,-17.92,71.6,66.99,1.12
907,dwarka,7,IN,1591219407,85,22.24,68.97,83.43,83.43,14.83
908,doka,15,SD,1591219407,44,13.52,35.77,82.6,82.6,10.27
909,santa lucia,20,ES,1591219407,78,27.91,-15.54,73.4,72.68,5.82
910,tautira,75,PF,1591219408,88,-17.73,-149.15,73.4,73.2,3.36
911,lancaster,20,US,1591219142,51,40.25,-76.25,87.01,85.05,11.41
912,antalaha,87,MG,1591219408,82,-14.9,50.28,74.01,74.01,9.84
913,tirlyanskiy,99,RU,1591219408,92,54.21,58.58,51.39,51.39,3.09
914,aquiraz,1,BR,1591219408,74,-3.9,-38.39,82.4,82.4,9.17
915,san carlos,5,VE,1591219253,54,9.66,-68.58,88.92,88.92,4.54
916,pangnirtung,40,CA,1591219408,80,66.15,-65.71,39.2,39.2,8.05
917,kattivakkam,20,IN,1591219408,74,13.22,80.32,86.0,86.0,9.17
918,hvolsvollur,81,IS,1591219408,73,63.75,-20.22,55.29,55.29,3.87
919,nikolayevskaya,67,RU,1591219408,85,47.61,41.5,55.9,55.9,8.28
920,upernavik,0,GL,1591219408,92,72.79,-56.15,30.97,30.97,6.69
921,amapa,80,BR,1591219408,96,1.0,-52.0,76.39,76.39,3.62
922,san-pedro,63,CI,1591219408,86,4.75,-6.64,79.5,79.5,5.26
923,havelock,20,US,1591219396,65,34.88,-76.9,82.4,79.36,19.46
924,manta,75,EC,1591219207,69,-0.95,-80.73,80.6,80.6,10.29
925,sorland,81,NO,1591219325,78,67.67,12.69,44.4,44.4,19.8
926,meulaboh,100,ID,1591219409,84,4.14,96.13,75.69,75.69,4.54
927,novopokrovka,18,UA,1591219409,86,49.84,36.55,54.66,54.66,4.59
928,saint-pierre,1,RE,1591219409,64,-21.34,55.48,68.0,61.68,5.82
929,bengkulu,100,ID,1591219409,87,-3.8,102.27,76.23,76.23,5.44
930,wicklow,75,IE,1591219409,57,53.0,-6.42,52.0,51.17,6.93
931,avera,1,US,1591219409,55,33.19,-82.53,86.0,85.1,8.05
932,provideniya,0,RU,1591219409,75,64.38,-173.3,41.0,41.0,8.95
933,half moon bay,1,US,1591219310,72,37.46,-122.43,96.01,79.45,12.75
934,podporozhye,98,RU,1591219409,67,60.91,34.17,52.47,52.47,6.4
935,ostrovnoy,5,RU,1591219409,67,68.05,39.51,52.99,52.99,13.94
936,poum,95,NC,1591219409,85,-20.23,164.02,75.2,75.2,18.99
937,plaeng yao,100,TH,1591219409,89,13.58,101.28,82.0,82.0,4.52
938,komsomolskiy,56,UZ,1591219409,38,40.43,71.72,75.2,75.2,6.93
939,kalga,100,RU,1591219409,63,50.93,118.9,50.85,50.85,1.36
940,yulara,0,AU,1591219410,75,-25.24,130.99,41.0,41.0,5.82
941,oranjestad,40,AW,1591219125,66,12.52,-70.03,86.0,86.0,24.16
942,yumen,12,CN,1591219410,24,40.28,97.2,68.72,68.72,7.36
943,denpasar,75,ID,1591219410,100,-8.65,115.22,77.0,77.0,11.41
944,omsukchan,0,RU,1591219410,56,62.53,155.8,50.05,50.05,3.4
945,cabedelo,4,BR,1591219384,94,-6.98,-34.83,77.0,77.0,5.82
946,bathsheba,20,BB,1591219410,70,13.22,-59.52,84.2,84.2,19.46
947,gunjur,0,GM,1591219410,74,13.2,-16.73,78.8,78.8,11.41
948,fukuma,75,JP,1591219410,88,33.77,130.47,71.01,69.96,3.36
949,carutapera,14,BR,1591219206,93,-1.2,-46.02,77.29,77.29,7.4
950,khuzdar,0,PK,1591219410,49,27.74,66.64,78.12,78.12,2.82
951,ulladulla,75,AU,1591219410,66,-35.35,150.47,48.2,39.83,6.93
952,namibe,0,AO,1591219410,80,-15.2,12.15,71.28,71.28,3.36
953,novikovo,0,RU,1591219410,89,51.15,37.89,53.42,53.42,3.2
954,korla,63,CN,1591219410,66,41.76,86.15,77.0,77.0,1.99
955,eureka,20,US,1591219291,82,40.8,-124.16,70.0,64.92,16.11
956,elliot,100,ZA,1591219411,50,-31.33,27.85,48.22,48.22,2.39
957,lukh,97,RU,1591219411,87,57.01,42.26,55.63,55.63,12.53
958,uray,8,RU,1591219411,71,60.12,64.78,39.97,39.97,1.61
959,vao,90,NC,1591219411,88,-22.67,167.48,72.75,72.75,15.86
960,muros,90,ES,1591219411,86,42.78,-9.06,63.0,62.46,1.99
961,batemans bay,0,AU,1591219411,91,-35.72,150.18,39.99,39.99,5.14
962,doha,0,QA,1591219244,41,25.29,51.53,97.0,93.87,3.36
963,georgiyevka,0,KZ,1591219411,56,43.04,74.71,68.0,68.0,8.95
964,plettenberg bay,100,ZA,1591219290,83,-34.05,23.37,59.4,59.4,3.78
965,pemangkat,80,ID,1591219411,87,1.17,108.97,78.35,78.35,0.54
966,kutum,36,SD,1591219411,16,14.2,24.67,79.3,79.3,9.24
967,reading,100,GB,1591219411,93,51.46,-0.97,57.0,55.36,10.29
968,balad,0,IQ,1591219411,18,34.02,44.15,82.72,82.72,12.64
969,mehamn,75,NO,1591219411,75,71.04,27.85,44.6,44.6,4.7
970,semey,100,KZ,1591219411,62,50.41,80.23,59.45,59.45,2.68
971,petrovsk,100,RU,1591219412,89,52.31,45.39,61.25,61.25,14.0
972,kavieng,99,PG,1591219412,75,-2.57,150.8,82.81,82.81,10.76
973,mandalgovi,100,MN,1591219412,72,45.76,106.27,49.62,49.62,2.64
974,chato,74,TZ,1591219412,63,-2.64,31.77,70.41,70.41,5.01
975,pontianak,97,ID,1591219412,94,-0.03,109.33,76.1,76.1,3.09
976,agadez,9,NE,1591219412,13,19.75,10.25,95.61,95.61,11.48
977,naron,40,ES,1591219412,87,43.52,-8.15,63.0,60.6,2.24
978,aloleng,89,PH,1591219412,69,16.13,119.78,83.86,83.86,2.21
979,kloulklubed,75,PW,1591219412,94,7.04,134.26,77.0,77.0,3.36
980,ramnagar,44,IN,1591219412,48,29.4,79.12,78.96,78.96,6.4
981,ulaangom,100,MN,1591219412,59,49.98,92.07,55.4,55.4,4.47
982,sayyan,100,YE,1591219412,76,15.17,44.32,61.16,61.16,1.39
983,ko samui,99,TH,1591219412,74,9.54,99.94,83.55,83.55,12.03
984,lorengau,97,PG,1591219412,78,-2.02,147.27,81.7,81.7,2.55
985,broken hill,0,AU,1591219413,86,-31.95,141.43,37.4,37.4,9.24
986,tupik,100,RU,1591219413,67,54.43,119.93,46.8,46.8,0.85
987,latung,71,PH,1591219413,72,5.5,120.88,83.93,83.93,6.82
988,sereflikochisar,100,TR,1591219413,58,38.94,33.54,61.92,61.92,8.66
989,acapulco,20,MX,1591219411,70,16.86,-99.89,84.2,84.2,12.75
990,tsaratanana,30,MG,1591219413,68,-16.78,47.65,67.28,67.28,13.78
991,lekoni,91,GA,1591219413,77,-1.58,14.26,77.61,77.61,2.37
992,husyatyn,62,UA,1591219413,83,49.07,26.21,53.01,52.03,1.99
993,sawakin,0,SD,1591219413,36,19.11,37.33,86.05,86.05,6.06
994,caravelas,21,BR,1591219413,89,-17.71,-39.25,74.73,74.73,6.44
995,taksimo,92,RU,1591219413,56,56.34,114.88,51.57,51.57,0.51
996,shingu,100,JP,1591219413,85,33.73,135.98,65.52,65.52,3.56
997,san cristobal,40,VE,1591219413,55,7.77,-72.22,89.6,89.6,12.75
998,fort-de-france,75,MQ,1591219413,70,14.61,-61.07,86.0,83.1,17.22
999,emba,63,KZ,1591219413,49,48.83,58.14,70.45,70.45,21.61
1000,tornio,92,FI,1591219413,81,65.85,24.15,51.8,51.8,4.7
1001,phan thiet,100,VN,1591219414,83,10.93,108.1,79.2,79.2,2.73
1002,kathu,75,TH,1591219414,88,7.92,98.33,77.0,77.0,4.7
1003,cravo norte,8,CO,1591219414,66,6.3,-70.2,86.76,86.76,7.63
1004,vila franca do campo,75,PT,1591219414,93,37.72,-25.43,62.6,62.6,19.46
1005,jiujiang,89,CN,1591219414,82,29.73,115.98,76.51,76.51,1.99
1006,kilindoni,93,TZ,1591219414,77,-7.91,39.67,79.77,79.77,16.44
1007,fairbanks,90,US,1591219414,82,64.84,-147.72,59.0,55.18,9.17
1008,kushtagi,100,IN,1591219414,73,15.77,76.2,75.69,75.69,21.16
1009,dingle,95,PH,1591219414,81,11.0,122.67,78.33,78.33,2.57
1010,bilma,1,NE,1591219414,13,18.69,12.92,93.58,93.58,6.73
1011,nazarovo,100,RU,1591219414,87,56.01,90.39,41.65,41.65,5.08
1012,mushie,100,CD,1591219414,86,-3.02,16.9,74.84,74.84,3.11
1013,altamira,16,BR,1591219221,92,-3.2,-52.21,78.89,78.89,3.47
1014,jalapa,28,MX,1591219335,63,19.53,-96.92,77.65,77.65,5.35
1015,kamina,0,CD,1591219414,62,-8.74,24.99,65.46,65.46,1.97
1016,botwood,98,CA,1591219415,70,49.15,-55.35,52.0,52.0,5.01
1017,guiong,20,PH,1591219415,94,6.42,122.03,75.2,75.2,2.24
1018,renqiu,3,CN,1591219415,19,38.7,116.09,75.31,75.31,12.71
1019,nyurba,25,RU,1591219415,53,63.28,118.33,56.07,56.07,3.36
1020,mountain home,40,US,1591219415,19,43.13,-115.69,86.0,86.0,11.41
1021,jumla,76,NP,1591219415,63,29.27,82.18,51.66,51.66,1.01
1022,chingirlau,46,KZ,1591219415,55,51.09,54.08,70.77,70.77,17.47
1023,riyadh,6,SA,1591219280,19,24.69,46.72,95.0,95.0,3.36
1024,san francisco,20,US,1591219370,39,37.77,-122.42,91.4,78.76,17.22
1025,sabang,100,ID,1591219415,77,5.89,95.32,83.16,83.16,12.77
1026,george,100,ZA,1591219342,93,-33.96,22.46,57.2,57.2,3.36
1027,concordia,0,AR,1591219415,67,-31.39,-58.02,59.0,59.0,6.93
1028,kedrovyy,71,RU,1591219415,81,56.17,91.82,44.6,44.6,5.35
1029,armidale,2,AU,1591219415,80,-30.52,151.65,37.0,37.0,4.81
1030,nicoya,90,CR,1591219415,100,10.15,-85.45,75.2,75.2,13.87
1031,abu dhabi,0,AE,1591219267,70,24.47,54.37,90.0,89.74,5.82
1032,det udom,100,TH,1591219416,94,14.91,105.08,77.0,77.0,2.24
1033,lima,90,PE,1591219416,77,-12.04,-77.03,66.2,66.2,12.75
1034,kiunga,92,PG,1591219416,99,-6.12,141.29,73.08,73.08,1.54
1035,bairiki,40,KI,1591219416,79,1.33,172.98,84.2,84.2,4.7
1036,santa comba,24,ES,1591219416,74,43.03,-8.81,63.0,61.65,1.99
1037,loandjili,75,CG,1591219416,94,-4.76,11.86,78.8,78.8,6.93
1038,kalmunai,19,LK,1591219416,74,7.42,81.82,79.72,79.72,6.02
1039,dali,13,CN,1591219416,84,25.7,100.18,59.7,59.7,5.32
1040,chifeng,0,CN,1591219416,55,42.27,118.96,54.97,54.97,14.12
1041,kovur,100,IN,1591219416,68,14.48,79.98,86.5,86.5,5.7
1042,vikulovo,100,RU,1591219416,90,56.82,70.61,44.71,44.71,5.48
1043,smirnykh,84,RU,1591219417,89,49.75,142.83,53.44,53.44,0.74
1044,nagtipunan,15,PH,1591219417,84,16.22,121.6,74.39,74.39,1.21
1045,hualmay,39,PE,1591219417,71,-11.1,-77.61,68.81,68.81,13.56
1046,fairfield,40,US,1591219417,65,41.27,-73.32,77.0,74.23,12.75
1047,seoul,75,KR,1591219417,100,37.57,126.98,69.8,67.41,9.17
1048,zhuji,20,CN,1591219417,100,29.72,120.24,75.2,74.93,4.47
1049,dongzhen,76,CN,1591219417,89,22.38,110.94,76.68,76.68,3.27
1050,srednekolymsk,0,RU,1591219417,51,67.45,153.68,51.8,51.8,6.15
1051,morgan city,20,US,1591219417,88,29.7,-91.21,77.0,77.0,5.82
1052,shuangyang,75,CN,1591219417,87,43.52,125.67,53.6,53.6,2.24
1053,katsuura,100,JP,1591219417,91,35.13,140.3,71.01,69.64,1.01
1054,tilichiki,10,RU,1591219417,76,60.47,166.1,43.18,43.18,5.91
1055,iqaluit,75,CA,1591219204,56,63.75,-68.51,42.8,42.39,16.11
1056,tshane,0,BW,1591219417,37,-24.02,21.87,57.02,57.02,7.34
1057,pingzhuang,0,CN,1591219417,55,42.04,119.29,55.62,55.62,13.51
1058,great falls,1,US,1591219235,20,47.5,-111.3,73.99,73.58,20.8
1059,mahajanga,3,MG,1591219418,57,-15.72,46.32,76.41,76.41,13.13
1060,saldanha,81,ZA,1591219418,81,-33.01,17.94,53.6,53.6,3.36
1061,hamilton,20,US,1591219349,48,39.18,-84.53,90.0,88.47,11.41
1062,sao joao da barra,0,BR,1591219418,83,-21.64,-41.05,73.4,72.46,6.93
1063,angoche,0,MZ,1591219418,83,-16.23,39.91,72.21,72.21,6.51
1064,kieta,69,PG,1591219418,76,-6.22,155.63,80.74,80.74,1.16
1065,emborion,2,GR,1591219418,66,40.48,21.55,55.4,55.4,3.36
1066,bejar,61,ES,1591219418,62,40.39,-5.76,68.0,68.0,4.0
1067,mathbaria,56,BD,1591219418,83,22.29,89.96,82.62,82.62,9.31
1068,vestmannaeyjar,69,IS,1591219418,82,63.44,-20.27,50.29,50.29,14.76
1069,chernyshevskiy,32,RU,1591219418,52,63.01,112.47,53.15,53.15,4.61
1070,rypefjord,75,NO,1591219418,75,70.63,23.67,42.8,42.8,2.24
1071,pangkalanbuun,61,ID,1591219418,88,-2.68,111.62,76.86,76.86,3.33
1072,viedma,0,AR,1591219418,57,-40.81,-63.0,48.45,48.45,7.16
1073,pangai,16,TO,1591219419,80,-19.8,-174.35,78.64,78.64,21.14
1074,flin flon,90,CA,1591219419,82,54.77,-101.86,55.4,55.4,10.29
1075,freeport,1,US,1591219242,57,40.66,-73.58,81.0,78.67,8.05
1076,alofi,75,NU,1591219419,69,-19.06,-169.92,78.8,78.8,18.34
1077,podujevo,75,XK,1591219419,76,42.91,21.19,55.4,54.18,8.05
1078,kuloy,77,RU,1591219419,76,61.03,42.49,47.93,47.93,5.28
1079,alad,4,PH,1591219419,67,12.62,122.25,84.78,84.78,4.25
1080,arcos de la frontera,20,ES,1591219419,82,36.75,-5.81,68.0,68.0,5.82
1081,fare,12,PF,1591219419,67,-16.7,-151.02,80.42,80.42,8.48
1082,aksu,100,CN,1591219419,30,41.12,80.26,74.88,74.88,7.45
1083,kidal,98,ML,1591219419,13,18.44,1.41,99.21,99.21,5.1
1084,pasni,0,PK,1591219419,91,25.26,63.47,82.54,82.54,13.15
1085,alto araguaia,1,BR,1591219419,63,-17.31,-53.22,71.13,71.13,3.71
1086,laguna,1,US,1591219419,22,38.42,-121.42,100.99,99.52,3.36
1087,namatanai,89,PG,1591219419,75,-3.67,152.43,81.63,81.63,5.12
1088,abrau-dyurso,40,RU,1591219419,82,44.69,37.59,60.8,60.4,13.42
1089,big bend,0,SZ,1591219419,93,-26.82,31.93,53.6,53.6,3.36
1090,oltina,7,RO,1591219420,81,44.17,27.67,52.0,51.89,10.29
1091,itoman,20,JP,1591219420,94,26.12,127.67,80.6,80.42,17.22
1092,chipinge,0,ZW,1591219420,97,-20.19,32.62,51.55,51.55,3.49
1093,husavik,40,IS,1591219420,80,66.04,-17.34,41.0,41.0,6.93
1094,saint-francois,87,FR,1591219420,87,46.42,3.91,60.8,60.8,3.36
1095,yuzhnyy,20,RU,1591219420,70,53.25,83.69,46.4,46.4,6.71
1096,syamzha,63,RU,1591219420,89,60.02,41.06,47.62,47.62,5.75
1097,dongkan,64,CN,1591219419,83,34.0,119.83,72.7,72.7,7.78
1098,ust-kuyga,8,RU,1591219420,71,70.02,135.6,39.72,39.72,4.5
1099,sterling,40,US,1591219420,34,39.01,-77.43,95.0,92.5,9.17
1100,morros,91,BR,1591219420,64,-9.45,-46.3,79.77,79.77,0.67
1101,loa janan,47,ID,1591219420,97,-0.58,117.09,73.56,73.56,1.19
1102,parrita,75,CR,1591219420,94,9.52,-84.32,71.6,69.39,13.87
1103,ewa beach,75,US,1591219420,52,21.32,-158.01,87.8,85.77,8.05
1104,tazovskiy,93,RU,1591219420,75,67.47,78.7,40.71,40.71,13.4
1105,celendin,68,PE,1591219421,62,-6.87,-78.15,63.72,63.72,5.06
1106,maceio,1,BR,1591219421,88,-9.67,-35.74,77.0,77.0,5.82
1107,oranjemund,100,NA,1591219421,83,-28.55,16.43,57.9,57.9,5.5
1108,palmer,75,US,1591219192,45,42.16,-72.33,82.4,80.19,14.99
1109,pacific grove,1,US,1591219421,56,36.62,-121.92,89.01,79.79,5.82
1110,viransehir,0,TR,1591219421,54,37.24,39.76,66.52,66.52,6.64
1111,coro,7,VE,1591219421,62,11.4,-69.67,85.59,85.59,19.75
1112,arrecife,20,ES,1591219360,83,28.96,-13.55,73.4,73.4,6.93
1113,marsaxlokk,7,MT,1591219421,77,35.84,14.54,69.01,66.99,2.24
1114,taoudenni,81,ML,1591219421,17,22.68,-3.98,101.1,101.1,25.3
1115,vankleek hill,90,CA,1591219421,93,45.52,-74.65,59.0,58.44,6.93
1116,thunder bay,40,CA,1591219421,33,48.4,-89.32,75.0,74.16,12.75
1117,tobol,16,KZ,1591219421,72,52.68,62.58,52.11,52.11,8.46
1118,troitskoye,89,RU,1591219421,74,52.98,84.68,48.78,48.78,5.75
1119,lucapa,26,AO,1591219422,49,-8.42,20.74,70.74,70.74,2.8
1120,severo-kurilsk,100,RU,1591219422,80,50.68,156.12,47.32,47.32,13.56
1121,klyuchi,76,RU,1591219422,52,52.27,79.17,54.39,54.39,9.69
1122,portland,1,US,1591219320,45,45.52,-122.68,72.0,69.64,5.82
1123,hirara,1,JP,1591219422,85,24.8,125.28,82.0,82.0,13.76
1124,turukhansk,93,RU,1591219422,66,65.82,87.98,50.36,50.36,10.2
1125,beringovskiy,100,RU,1591219422,74,63.05,179.32,42.96,42.96,2.77
1126,shabo,49,UA,1591219422,93,46.13,30.39,55.4,55.4,8.95
1127,buta,96,CD,1591219422,97,2.79,24.73,69.57,69.57,1.68
1128,puerto armuelles,99,PA,1591219422,89,8.28,-82.87,68.0,68.0,3.0
1129,tucuma,0,BR,1591219422,80,-0.18,-50.05,80.4,80.4,8.37
1130,olinda,40,BR,1591219237,83,-8.01,-34.86,80.6,80.6,8.05
1131,sikeston,1,US,1591219422,43,36.88,-89.59,91.4,89.94,6.93
1132,mardin,0,TR,1591219422,37,37.31,40.74,66.2,66.2,11.41
1133,hurricane,1,US,1591219422,11,37.18,-113.29,100.0,96.76,9.17
1134,kyaikkami,100,MM,1591219422,80,16.08,97.57,82.72,82.72,8.97
1135,phalombe,17,MW,1591219423,92,-15.81,35.65,60.49,60.49,3.71
1136,bandar-e anzali,0,IR,1591219423,66,37.47,49.46,74.46,74.46,11.03
1137,christchurch,97,NZ,1591219133,93,-43.53,172.63,51.01,50.34,12.75
1138,anadyr,100,RU,1591219423,66,64.75,177.48,51.8,51.35,6.71
1139,ampanihy,0,MG,1591219423,70,-24.7,44.75,63.9,63.9,4.65
1140,vysokogornyy,98,RU,1591219423,93,50.12,139.15,47.77,47.77,3.74
1141,karratha,0,AU,1591219262,48,-20.74,116.85,70.93,70.93,12.64
1142,suchil,21,MX,1591219385,17,23.63,-103.92,85.73,85.73,15.23
1143,conakry,85,GN,1591219385,80,9.54,-13.68,82.53,82.53,6.35
1144,ushuaia,75,AR,1591219195,60,-54.8,-68.3,42.8,42.8,8.05
1145,kirakira,97,SB,1591219385,74,-10.45,161.92,82.51,82.51,4.59
1146,east london,100,ZA,1591219385,78,-33.02,27.91,65.39,65.39,6.89
1147,warrington,91,GB,1591219385,71,53.39,-2.58,54.0,52.12,4.7
1148,shido,75,JP,1591219385,88,34.32,134.17,66.2,65.73,5.82
1149,carayao,29,PY,1591219385,71,-25.18,-56.4,66.96,66.96,1.97
1150,kaili,56,ID,1591219385,89,-3.46,120.21,68.18,68.18,1.86
1151,avarua,14,CK,1591219385,69,-21.21,-159.78,77.0,77.0,12.75
1152,jamestown,40,US,1591219280,69,42.1,-79.24,75.99,74.7,17.22
1153,plouzane,75,FR,1591219385,93,48.38,-4.62,57.2,56.64,6.93
1154,puerto ayora,40,EC,1591219385,61,-0.74,-90.35,82.4,79.02,18.34
1155,port alfred,100,ZA,1591219385,94,-33.59,26.89,61.0,61.0,1.01
1156,broome,75,US,1591219385,64,42.25,-75.83,75.99,72.73,6.93
1157,pevek,68,RU,1591219386,76,69.7,170.31,39.6,39.6,3.44
1158,port macquarie,51,AU,1591219386,77,-31.43,152.92,55.99,55.99,1.01
1159,nikolskoye,100,RU,1591219386,62,59.7,30.79,59.0,57.07,2.24
1160,albany,74,US,1591219386,49,42.6,-73.97,80.01,78.4,1.01
1161,busselton,0,AU,1591219386,80,-33.65,115.33,48.0,46.6,6.02
1162,hobart,20,AU,1591219224,80,-42.88,147.33,44.01,40.8,8.05
1163,dikson,99,RU,1591219386,98,73.51,80.55,31.26,31.26,14.85
1164,topchikha,20,RU,1591219386,70,52.82,83.12,46.4,46.4,6.71
1165,dubbo,0,AU,1591219386,100,-32.25,148.62,39.2,39.2,9.17
1166,hithadhoo,89,MV,1591219386,65,-0.6,73.08,84.24,84.24,6.98
1167,puri,40,IN,1591219386,88,19.8,85.85,78.8,78.8,14.41
1168,bluff,100,NZ,1591219386,79,-46.6,168.33,47.41,47.41,22.91
1169,haines junction,96,CA,1591219386,44,60.75,-137.51,52.61,52.61,8.46
1170,punta arenas,75,CL,1591219179,70,-53.15,-70.92,46.4,46.2,18.34
1171,butaritari,84,KI,1591219386,77,3.07,172.79,82.22,82.22,6.73
1172,koslan,18,RU,1591219387,54,63.46,48.9,50.4,50.4,3.31
1173,rikitea,100,PF,1591219384,80,-23.12,-134.97,75.7,75.7,18.57
1174,dhadar,22,IN,1591219387,31,28.33,75.06,90.77,90.77,5.06
1175,sechura,52,PE,1591219387,57,-5.56,-80.82,77.16,77.16,16.93
1176,saint-philippe,47,RE,1591219387,64,-21.36,55.77,69.8,62.73,5.82
1177,mayo,1,US,1591219142,46,38.89,-76.51,91.99,89.91,10.29
1178,nantucket,1,US,1591219325,87,41.28,-70.1,63.0,61.45,14.99
1179,oussouye,17,SN,1591219387,83,12.48,-16.55,80.6,79.68,9.17
1180,chuy,17,UY,1591219387,77,-33.7,-53.46,51.55,51.55,4.38
1181,gat,0,IL,1591219387,53,31.61,34.76,70.0,66.97,4.0
1182,thompson,75,CA,1591219387,48,55.74,-97.86,60.8,60.8,5.82
1183,mar del plata,40,AR,1591219260,71,-38.0,-57.56,50.0,49.66,8.05
1184,holalkere,100,IN,1591219387,76,14.03,76.18,73.27,73.27,10.31
1185,mataura,100,NZ,1591219387,92,-46.19,168.86,44.1,44.1,7.49
1186,clyde river,90,CA,1591219387,100,70.47,-68.59,28.4,28.4,5.82
1187,kahului,40,US,1591219323,49,20.89,-156.47,89.6,82.56,19.46
1188,arraial do cabo,40,BR,1591219388,88,-22.97,-42.03,73.4,73.4,5.82
1189,szubin,0,PL,1591219343,71,53.01,17.74,53.6,53.6,4.7
1190,ponta do sol,40,PT,1591219388,68,32.67,-17.1,68.0,64.04,11.41
1191,roura,20,GF,1591219388,78,4.73,-52.33,82.4,82.4,6.93
1192,kozhva,0,RU,1591219388,66,65.11,57.05,46.58,46.58,3.0
1193,victoria,91,HK,1591219318,79,22.29,114.16,84.0,83.03,8.99
1194,san patricio,40,MX,1591219388,83,19.22,-104.7,80.6,80.6,23.04
1195,labytnangi,79,RU,1591219388,58,66.66,66.42,45.37,45.37,2.71
1196,kapaa,20,US,1591219388,78,22.08,-159.32,82.0,81.39,11.41
1197,puerto baquerizo moreno,75,EC,1591219388,78,-0.9,-89.6,78.8,78.8,13.87
1198,moussoro,0,TD,1591219388,35,13.64,16.49,91.44,91.44,12.84
1199,hermanus,82,ZA,1591219388,84,-34.42,19.23,59.0,59.0,3.0
1200,kuala terengganu,20,MY,1591219388,94,5.33,103.14,78.8,78.42,3.36
1201,slave lake,40,CA,1591219388,58,55.28,-114.77,57.2,57.2,25.28
1202,samarai,61,PG,1591219385,86,-10.62,150.67,79.99,79.99,6.78
1203,hilo,1,US,1591219388,54,19.73,-155.09,84.2,79.2,8.05
1204,airai,100,TL,1591219389,100,-8.93,125.41,54.81,54.81,4.56
1205,cap malheureux,100,MU,1591219389,70,-19.98,57.61,73.0,73.0,7.0
1206,mahebourg,75,MU,1591219389,69,-20.41,57.7,73.4,73.4,14.99
1207,klaksvik,5,FO,1591219389,87,62.23,-6.59,44.6,44.6,6.93
1208,luderitz,27,NA,1591219389,87,-26.65,15.16,55.4,55.4,2.24
1209,leningradskiy,37,RU,1591219389,68,69.38,178.42,42.06,42.06,5.75
1210,carnarvon,0,AU,1591219389,42,-24.87,113.63,71.38,71.38,9.22
1211,yellowknife,75,CA,1591219389,49,62.46,-114.35,48.99,48.33,4.7
1212,khatanga,11,RU,1591219389,51,71.97,102.5,48.79,48.79,9.15
1213,robertsport,100,LR,1591219389,80,6.75,-11.37,81.79,81.79,6.91
1214,dongsheng,16,CN,1591219389,28,39.82,109.98,61.16,61.16,1.14
1215,halifax,90,CA,1591219378,100,44.65,-63.57,48.99,46.6,6.93
1216,shubarshi,59,KZ,1591219389,47,48.59,57.19,72.23,72.23,17.74
1217,atuona,4,PF,1591219389,75,-9.8,-139.03,80.98,80.98,15.26
1218,toila,100,EE,1591219389,82,59.42,27.5,53.94,53.94,4.32
1219,olafsvik,61,IS,1591219389,84,64.89,-23.71,47.5,47.5,4.72
1220,nishihara,40,JP,1591219390,88,26.18,127.76,80.6,80.46,12.75
1221,haveli,50,PK,1591219390,35,30.45,73.7,89.19,89.19,5.55
1222,bambous virieux,75,MU,1591219390,69,-20.34,57.76,73.4,73.22,14.99
1223,sarakhs,0,IR,1591219390,28,36.54,61.16,80.6,80.6,2.24
1224,baruun-urt,0,MN,1591219390,73,46.68,113.28,47.16,47.16,4.83
1225,lavrentiya,0,RU,1591219390,67,65.58,-171.0,42.21,42.21,5.57
1226,tabou,32,CI,1591219390,86,4.42,-7.35,79.57,79.57,6.73
1227,longyearbyen,20,SJ,1591219390,69,78.22,15.64,37.4,37.4,3.36
1228,thinadhoo,87,MV,1591219195,68,0.53,72.93,84.38,84.38,8.16
1229,krasnoselkup,28,RU,1591219390,69,65.7,82.47,46.29,46.29,12.5
1230,syracuse,1,IT,1591219390,63,37.09,15.28,64.4,61.09,5.82
1231,lata,25,PT,1591219390,89,40.16,-8.33,66.0,64.0,3.02
1232,gornyy,71,RU,1591219390,73,55.12,83.91,40.44,40.44,1.34
1233,sydney,75,AU,1591219189,62,-33.87,151.21,51.8,50.23,16.11
1234,fayaoue,71,NC,1591219391,83,-20.65,166.53,76.39,76.39,17.18
1235,vaini,20,TO,1591219391,78,-21.2,-175.2,78.8,78.8,9.17
1236,tasiilaq,100,GL,1591219391,60,65.61,-37.64,42.8,42.8,4.7
1237,bredasdorp,96,ZA,1591219391,93,-34.53,20.04,57.2,57.2,2.24
1238,narasannapeta,100,IN,1591219391,78,18.42,84.05,84.27,84.27,6.15
1239,geraldton,0,AU,1591219391,58,-28.77,114.6,57.2,57.2,10.29
1240,axim,5,GH,1591219391,84,4.87,-2.24,79.84,79.84,8.01
1241,codrington,1,AU,1591219391,90,-38.27,141.97,40.64,40.64,5.01
1242,torbay,75,CA,1591219391,58,47.67,-52.73,53.6,52.93,14.99
1243,barrow,1,US,1591219239,80,71.29,-156.79,35.6,35.6,17.22
1244,honiara,40,SB,1591219391,100,-9.43,159.95,75.2,75.2,1.68
1245,padang,100,ID,1591219391,83,-0.95,100.35,77.9,77.9,2.55
1246,cam ranh,20,VN,1591219391,74,11.92,109.16,86.0,86.0,8.05
1247,port-cartier,75,CA,1591219391,61,50.03,-66.87,48.2,47.01,12.75
1248,nanortalik,78,GL,1591219392,88,60.14,-45.24,48.36,48.36,4.56
1249,zhigansk,66,RU,1591219392,51,66.77,123.37,50.65,50.65,10.4
1250,vardo,75,NO,1591219392,87,70.37,31.11,42.8,42.8,8.05
1251,comacchio,99,IT,1591219392,36,44.7,12.19,77.0,70.32,3.36
1252,haverfordwest,83,GB,1591219167,76,51.8,-4.97,55.4,54.3,19.46
1253,adrar,50,MR,1591219392,30,20.5,-10.07,89.67,89.67,13.31
1254,khandyga,50,RU,1591219392,54,62.67,135.6,55.76,55.76,3.49
1255,talnakh,9,RU,1591219392,75,69.49,88.4,44.6,44.6,17.9
1256,georgetown,20,MY,1591219164,94,5.41,100.34,80.6,79.27,2.24
1257,narsaq,54,GL,1591219392,62,60.92,-46.05,59.0,59.0,4.7
1258,vanavara,100,RU,1591219392,73,60.34,102.28,49.91,49.91,3.09
1259,san andres,90,CO,1591219211,88,12.58,-81.7,80.6,80.6,5.82
1260,cape town,84,ZA,1591219209,87,-33.93,18.42,59.0,56.66,6.93
1261,wagar,0,SD,1591219392,16,16.15,36.2,89.69,89.69,7.74
1262,hambantota,71,LK,1591219393,85,6.12,81.12,78.13,78.13,13.06
1263,saskylakh,100,RU,1591219393,59,71.92,114.08,47.89,47.89,7.43
1264,buala,44,SB,1591219393,72,-8.14,159.59,82.85,82.85,4.18
1265,san quintin,0,MX,1591219393,53,30.48,-115.95,75.69,75.69,9.37
1266,mombetsu,28,JP,1591219393,79,44.35,143.35,57.0,57.0,1.99
1267,kodiak,90,US,1591219393,81,57.79,-152.41,50.0,50.0,10.29
1268,aklavik,5,CA,1591219393,37,68.22,-135.01,53.6,53.6,6.93
1269,demerval lobao,31,BR,1591219393,58,-5.36,-42.68,87.8,87.8,3.36
1270,daru,100,PG,1591219393,86,-9.08,143.21,77.9,77.9,18.75
1271,coahuayana,20,MX,1591219393,66,18.73,-103.68,86.0,86.0,11.41
1272,tuktoyaktuk,20,CA,1591219393,60,69.45,-133.04,41.0,41.0,12.75
1273,ossora,94,RU,1591219393,71,59.24,163.07,45.48,45.48,2.59
1274,fershampenuaz,95,RU,1591219393,75,53.52,59.81,54.45,54.45,5.99
1275,saint george,1,US,1591219220,11,37.1,-113.58,100.0,98.6,9.17
1276,bambanglipuro,53,ID,1591219393,87,-7.95,110.28,77.36,77.36,6.46
1277,palaia fokaia,20,GR,1591219394,82,37.72,23.95,66.99,64.02,4.7
1278,deputatskiy,100,RU,1591219394,77,69.3,139.9,38.62,38.62,4.7
1279,port lincoln,99,AU,1591219394,78,-34.73,135.87,52.77,52.77,8.88
1280,placido de castro,99,BR,1591219394,83,-10.34,-67.19,75.96,75.96,3.06
1281,wasilla,1,US,1591219394,33,61.58,-149.44,62.6,62.08,2.55
1282,kashi,81,CN,1591219394,23,39.45,75.98,75.2,75.2,13.42
1283,dongli,40,CN,1591219394,100,23.57,116.82,78.8,78.8,2.24
1284,new norfolk,8,AU,1591219394,77,-42.78,147.06,44.01,39.34,3.78
1285,simpang,100,ID,1591219394,97,-1.27,104.08,74.3,74.3,3.31
1286,rimbey,75,CA,1591219394,29,52.63,-114.24,60.8,58.08,20.8
1287,nemuro,100,JP,1591219394,97,43.32,145.57,47.32,47.32,2.53
1288,jambi,100,ID,1591219275,97,-1.6,103.62,73.98,73.98,2.51
1289,port elizabeth,98,ZA,1591219394,93,-33.92,25.57,57.2,57.2,3.36
1290,bubaque,0,GW,1591219394,76,11.28,-15.83,80.55,80.55,17.63
1291,asmara,77,ER,1591219394,32,15.33,38.93,64.92,64.92,3.15
1292,kirgiz-miyaki,100,RU,1591219394,87,53.63,54.8,54.46,54.46,7.29
1293,tiksi,37,RU,1591219395,90,71.69,128.87,33.48,33.48,2.84
1294,chokurdakh,51,RU,1591219395,65,70.63,147.92,41.45,41.45,9.22
1295,wana,1,PK,1591219395,61,32.3,69.57,69.37,69.37,0.72
1296,catamarca,0,AR,1591219395,53,-28.47,-65.79,57.99,54.36,1.99
1297,sitka,75,US,1591219395,71,57.05,-135.33,51.8,51.8,5.57
1298,kununurra,86,AU,1591219395,31,-15.77,128.73,57.2,57.2,1.12
1299,owosso,1,US,1591219395,39,43.0,-84.18,84.0,82.62,10.29
1300,pochutla,90,MX,1591219395,74,15.74,-96.47,82.4,82.4,8.01
1301,qaanaaq,100,GL,1591219395,95,77.48,-69.36,29.89,29.89,5.55
1302,camana,99,PE,1591219395,80,-16.62,-72.71,64.63,64.63,8.86
1303,mount gambier,1,AU,1591219395,94,-37.83,140.77,33.8,33.8,3.53
1304,souillac,75,MU,1591219395,69,-20.52,57.52,73.4,73.4,14.99
1305,castro,69,BR,1591219395,96,-24.79,-50.01,58.23,58.23,4.7
1306,singkang,20,MY,1591219395,83,2.1,102.8,80.6,80.33,2.24
1307,ekhabi,100,RU,1591219396,97,53.51,142.97,37.38,37.38,10.13
1308,bondo,100,CD,1591219396,98,3.81,23.69,69.4,69.4,3.13
1309,hobyo,100,SO,1591219396,72,5.35,48.53,82.8,82.8,19.53
1310,kumeny,2,RU,1591219396,78,58.11,49.92,47.12,47.12,7.65
1311,faanui,0,PF,1591219396,68,-16.48,-151.75,79.68,79.68,6.15
1312,quatre cocos,75,MU,1591219396,69,-20.21,57.76,73.4,73.2,14.99
1313,baykit,100,RU,1591219396,79,61.67,96.37,49.89,49.89,2.53
1314,osorno,0,CL,1591219396,76,-40.57,-73.15,51.8,51.8,1.68
1315,athens,20,GR,1591219240,88,37.98,23.72,68.0,64.94,1.97
1316,vanimo,100,PG,1591219396,84,-2.67,141.3,78.37,78.37,4.76
1317,makakilo city,75,US,1591219247,52,21.35,-158.09,87.8,85.73,8.05
1318,bethel,40,US,1591219396,65,41.37,-73.41,77.0,76.1,12.75
1319,gunnedah,0,AU,1591219396,100,-30.98,150.25,33.8,33.8,2.24
1320,kaitangata,100,NZ,1591219397,87,-46.28,169.85,46.0,46.0,14.0
1321,southbridge,20,US,1591219397,60,42.08,-72.03,78.01,75.33,14.99
1322,dawson,1,US,1591219397,55,31.77,-84.45,87.8,84.07,8.05
1323,hay river,40,CA,1591219397,52,60.82,-115.8,44.6,44.6,13.87
1324,sakaiminato,75,JP,1591219397,82,35.55,133.23,66.2,66.2,1.12
1325,kruisfontein,100,ZA,1591219397,93,-34.0,24.73,55.45,55.45,3.49
1326,norman wells,75,CA,1591219397,43,65.28,-126.83,51.8,51.8,5.82
1327,cidreira,27,BR,1591219397,78,-30.18,-50.21,61.9,61.9,9.53
1328,ballina,90,AU,1591219397,71,-28.87,153.57,55.4,52.25,10.29
1329,snasa,100,NO,1591219397,85,64.25,12.38,54.52,54.52,6.62
1330,ketchikan,75,US,1591219397,71,55.34,-131.65,53.6,53.6,16.11
1331,college,75,US,1591219397,71,64.86,-147.8,59.0,55.29,5.82
1332,canutama,55,BR,1591219397,84,-6.53,-64.38,82.51,82.51,2.3
1333,nhulunbuy,2,AU,1591219397,66,-12.23,136.77,76.06,76.06,14.32
1334,tenno,0,JP,1591219397,69,39.9,139.97,62.69,62.69,7.52
1335,wuda,0,CN,1591219398,18,39.5,106.71,70.21,70.21,1.88
1336,takoradi,0,GH,1591219398,85,4.88,-1.76,80.02,80.02,8.43
1337,sola,100,VU,1591219398,82,-13.88,167.55,81.05,81.05,11.23
1338,orlik,7,RU,1591219398,77,52.52,99.83,38.79,38.79,3.85
1339,arman,0,RU,1591219398,60,59.7,150.17,49.08,49.08,2.46
1340,pincher creek,1,CA,1591219140,25,49.48,-113.95,64.99,63.86,31.09
1341,lucea,40,JM,1591219398,66,18.45,-78.17,87.8,87.39,25.28
1342,japura,97,ID,1591219398,97,-0.32,102.35,75.09,75.09,4.29
1343,flinders,27,AU,1591219398,61,-34.58,150.86,53.01,53.01,5.01
1344,martapura,59,ID,1591219398,94,-3.42,114.85,74.5,74.5,2.04
1345,san pedro,40,PH,1591219398,79,14.35,121.02,84.2,83.71,3.38
1346,khasan,92,RU,1591219398,92,42.43,130.64,55.06,55.06,4.0
1347,bergen,75,NO,1591219398,93,60.39,5.33,52.0,50.18,5.82
1348,fortuna,1,US,1591219398,82,40.6,-124.16,64.99,62.15,13.87
1349,den helder,90,NL,1591219144,76,52.96,4.76,60.01,57.9,11.41
1350,cabo san lucas,5,MX,1591219158,48,22.89,-109.91,93.2,88.52,24.16
1351,ojinaga,1,MX,1591219399,17,29.57,-104.42,100.4,99.77,4.5
1352,faya,12,SA,1591219399,33,18.39,42.45,77.0,76.1,14.99
1353,severnoye,87,RU,1591219399,88,56.35,78.36,39.0,39.0,5.3
1354,karksi-nuia,20,EE,1591219399,97,58.1,25.56,47.32,47.32,5.19
1355,richards bay,34,ZA,1591219399,84,-28.78,32.04,68.27,68.27,7.58
1356,tura,100,IN,1591219399,96,25.52,90.22,73.38,73.38,6.78
1357,lebu,0,CL,1591219399,75,-37.62,-73.65,53.13,53.13,12.3
1358,salym,0,RU,1591219399,87,60.06,71.48,35.55,35.55,6.02
1359,portales,40,US,1591219399,24,34.19,-103.33,93.0,92.28,8.05
1360,reconquista,0,AR,1591219399,75,-29.15,-59.65,56.19,56.19,7.96
1361,evanston,75,US,1591219399,39,42.04,-87.69,84.99,82.81,5.82
1362,coihaique,60,CL,1591219399,28,-45.58,-72.07,44.6,44.6,6.93
1363,smidovich,100,RU,1591219399,93,48.6,133.82,49.19,49.19,17.36
1364,lompoc,1,US,1591219399,53,34.64,-120.46,81.0,77.13,16.11
1365,gizo,92,SB,1591219399,71,-8.1,156.84,83.95,83.95,6.85
1366,tuatapere,100,NZ,1591219400,86,-46.13,167.68,44.83,44.83,8.48
1367,rawson,3,AR,1591219260,45,-43.3,-65.1,50.86,50.86,22.15
1368,constitucion,8,CL,1591219400,77,-35.33,-72.42,54.39,54.39,5.86
1369,ribeira grande,40,PT,1591219400,72,38.52,-28.7,64.4,64.4,21.92
1370,mazara del vallo,15,IT,1591219400,82,37.66,12.59,68.0,63.45,5.82
1371,lagoa,0,PT,1591219400,79,39.05,-27.98,62.64,62.64,23.67
1372,port hueneme,1,US,1591219400,64,34.15,-119.2,80.6,73.04,10.29
1373,petropavlovka,92,RU,1591219400,69,50.61,105.32,51.26,51.26,4.07
1374,inirida,99,CO,1591219400,84,3.87,-67.92,82.85,82.85,2.15
1375,rocha,92,UY,1591219400,85,-34.48,-54.33,47.25,47.25,3.8
1376,jalu,0,LY,1591219400,31,29.03,21.55,74.62,74.62,15.3
1377,manzhouli,95,CN,1591219400,64,49.6,117.43,53.17,53.17,4.38
1378,asyut,24,EG,1591219400,39,27.18,31.18,84.2,84.2,2.24
1379,rameswaram,100,IN,1591219401,82,9.28,79.3,84.02,84.02,27.72
1380,colares,20,PT,1591219401,82,38.8,-9.45,69.01,66.43,4.7
1381,camabatela,66,AO,1591219401,84,-8.19,15.38,66.16,66.16,2.64
1382,cockburn town,75,TC,1591219401,66,21.46,-71.14,86.0,86.0,13.87
1383,churapcha,0,RU,1591219401,58,62.0,132.43,55.69,55.69,5.21
1384,masuguru,11,TZ,1591219401,66,-11.37,38.42,68.47,68.47,1.21
1385,santa cruz,90,BO,1591219401,93,-17.8,-63.17,60.8,60.8,17.22
1386,abha,35,SA,1591219401,33,18.22,42.51,77.0,76.05,14.99
1387,kano,55,NG,1591219401,41,12.0,8.52,93.2,93.2,9.17
1388,te anau,100,NZ,1591219401,87,-45.42,167.72,45.16,45.16,7.92
1389,caucaia,0,BR,1591219402,74,-3.74,-38.65,82.4,82.2,9.17
1390,koulikoro,100,ML,1591219402,25,14.0,-7.75,95.94,95.94,8.28
1391,ahuimanu,20,US,1591219402,58,21.44,-157.84,87.8,85.3,12.75
1392,choix,9,MX,1591219402,23,26.71,-108.32,105.73,105.73,9.4
1393,matadi,3,CD,1591219402,88,-5.82,13.45,75.49,75.49,2.37
1394,celestun,100,MX,1591219402,87,20.87,-90.4,79.03,79.03,19.46
1395,praia da vitoria,75,PT,1591219402,88,38.73,-27.07,62.6,62.6,22.55
1396,bonthe,96,SL,1591219402,85,7.53,-12.51,80.47,80.47,5.5
1397,lamu,97,KE,1591219402,80,-2.27,40.9,79.16,79.16,16.98
1398,smolenka,50,RU,1591219402,86,52.14,113.5,41.0,41.0,2.24
1399,bollnas,68,SE,1591219402,78,61.35,16.39,47.05,47.05,3.96
1400,priargunsk,100,RU,1591219402,71,50.37,119.1,50.18,50.18,1.72
1401,oshawa,20,CA,1591219205,51,43.9,-78.85,80.6,79.52,16.11
1402,saint-augustin,5,CA,1591219402,60,51.23,-58.65,47.41,47.41,20.96
1403,iquitos,40,PE,1591219250,78,-3.75,-73.25,80.6,80.6,3.36
1404,touros,20,BR,1591219402,88,-5.2,-35.46,78.8,78.8,6.93
1405,sokolka,90,PL,1591219403,78,53.41,23.5,48.99,48.99,35.01
1406,mormugao,90,IN,1591219403,83,15.4,73.8,82.4,82.4,11.41
1407,hammerfest,75,NO,1591219403,75,70.66,23.68,42.8,42.8,2.24
1408,kropotkin,0,RU,1591219403,91,45.44,40.58,55.81,55.81,6.69
1409,okato,96,NZ,1591219403,83,-39.2,173.88,60.01,58.46,10.0
1410,ningxiang,0,CN,1591219403,24,37.34,111.21,68.81,68.81,8.08
1411,cherskiy,100,RU,1591219403,59,68.75,161.3,46.49,46.49,5.14
1412,magdagachi,100,RU,1591219403,82,53.45,125.8,44.04,44.04,2.57
1413,saint-ambroise,75,CA,1591219403,23,48.55,-71.33,64.0,63.34,13.87
1414,hami,0,CN,1591219403,20,42.8,93.45,79.47,79.47,10.04
1415,disna,21,BY,1591219403,95,55.57,28.2,49.39,49.39,7.78
1416,marawi,45,PH,1591219403,88,8.0,124.29,77.0,77.0,5.01
1417,gamba,100,GA,1591219403,88,-2.65,10.0,77.05,77.05,7.61
1418,chapais,90,CA,1591219403,22,49.78,-74.85,59.0,59.0,12.75
1419,guerrero negro,0,MX,1591219138,39,27.98,-114.06,80.94,80.94,15.19
1420,saint anthony,1,US,1591219316,28,45.02,-93.22,84.0,82.26,9.17
1421,andapa,85,MG,1591219403,88,-14.65,49.65,66.78,66.78,2.55
1422,brae,100,GB,1591219404,70,60.4,-1.35,46.4,46.4,9.17
1423,hasaki,75,JP,1591219404,100,35.73,140.83,68.0,68.0,5.82
1424,stornoway,95,GB,1591219404,87,58.21,-6.39,48.99,48.52,5.82
1425,weihai,0,CN,1591219404,70,37.5,122.11,66.36,66.36,7.02
1426,doume,100,CM,1591219404,90,4.23,13.45,69.35,69.35,0.54
1427,vila velha,40,BR,1591219240,88,-20.33,-40.29,73.4,73.18,6.93
1428,ahipara,19,NZ,1591219404,83,-35.17,173.17,61.92,61.92,13.98
1429,maragogi,17,BR,1591219404,86,-9.01,-35.22,77.77,77.77,4.34
1430,isangel,40,VU,1591219404,88,-19.55,169.27,73.4,73.4,11.99
1431,sfantu gheorghe,67,RO,1591219404,80,45.87,25.78,48.0,47.57,2.82
1432,sao felix do xingu,80,BR,1591219404,84,-6.64,-51.99,78.13,78.13,3.18
1433,samarinda,35,ID,1591219404,97,-0.5,117.15,73.67,73.67,0.96
1434,shirgaon,100,IN,1591219404,75,19.7,72.7,76.78,76.78,11.32
1435,ambon,25,ID,1591219404,78,-3.7,128.18,80.35,80.35,14.88
1436,ilulissat,62,GL,1591219405,74,69.22,-51.1,35.6,35.6,5.82
1437,paarl,96,ZA,1591219405,87,-33.73,18.98,57.0,55.81,6.93
1438,paamiut,99,GL,1591219405,98,61.99,-49.67,43.12,43.12,4.76
1439,kavaratti,100,IN,1591219405,76,10.57,72.64,84.87,84.87,16.58
1440,guarapari,40,BR,1591219405,88,-20.67,-40.5,73.4,73.18,6.93
1441,masakin,20,TN,1591219405,73,35.73,10.58,75.99,73.15,11.41
1442,timizart,0,DZ,1591219405,64,36.8,4.27,66.07,66.07,3.6
1443,nome,1,US,1591219405,81,64.5,-165.41,60.01,53.42,12.75
1444,inongo,90,CD,1591219405,86,-1.95,18.27,72.34,72.34,0.85
1445,kita,100,ML,1591219405,30,13.03,-9.49,93.63,93.63,5.84
1446,north valley,20,US,1591219214,20,35.17,-106.62,90.0,88.99,5.82
1447,pimentel,5,PE,1591219405,60,-6.84,-79.93,73.4,73.4,23.04
1448,dicabisagan,4,PH,1591219405,80,17.08,122.42,80.17,80.17,5.64
1449,grand gaube,100,MU,1591219405,70,-20.01,57.66,73.0,73.0,7.0
1450,rio brilhante,77,BR,1591219405,97,-21.8,-54.55,65.41,65.41,5.1
1451,kuressaare,28,EE,1591219406,67,58.25,22.5,57.2,57.2,3.36
1452,bonavista,32,CA,1591219406,62,48.65,-53.11,52.0,52.0,8.01
1453,naze,40,JP,1591219406,100,28.37,129.48,77.0,77.0,12.75
1454,murray bridge,0,AU,1591219406,94,-35.12,139.27,43.0,39.99,2.93
1455,dunedin,100,NZ,1591219160,93,-45.87,170.5,48.99,48.45,1.01
1456,port hardy,75,CA,1591219406,76,50.7,-127.42,53.6,53.6,6.93
1457,esperance,9,AU,1591219406,87,-33.87,121.9,50.0,50.0,16.11
1458,deniliquin,0,AU,1591219406,91,-35.53,144.97,35.01,35.01,4.09
1459,neryungri,98,RU,1591219406,75,56.67,124.65,46.06,46.06,2.46
1460,boyolangu,100,ID,1591219406,89,-8.12,111.89,75.83,75.83,5.5
1461,parati,40,BR,1591219111,53,-23.22,-44.71,73.4,73.4,4.7
1462,qaqortoq,95,GL,1591219406,62,60.72,-46.03,59.0,59.0,4.7
1463,alyangula,5,AU,1591219406,100,-13.85,136.42,59.0,59.0,15.1
1464,sept-iles,75,CA,1591219406,61,50.2,-66.38,48.2,46.98,12.75
1465,bud,97,US,1591219406,56,39.45,-86.18,88.0,87.03,10.2
1466,goderich,13,CA,1591219407,80,43.75,-81.72,64.99,61.34,11.3
1467,panzhihua,57,CN,1591219407,77,26.59,101.71,68.14,68.14,1.83
1468,ancud,28,CL,1591219407,76,-41.87,-73.82,48.99,48.58,6.93
1469,kjollefjord,75,NO,1591219407,75,70.95,27.35,44.6,44.6,4.7
1470,raudeberg,100,NO,1591219407,93,61.99,5.14,48.99,48.99,22.88
1471,mayumba,99,GA,1591219407,89,-3.43,10.66,77.27,77.27,8.08
1472,beloha,0,MG,1591219407,83,-25.17,45.05,63.5,63.5,8.12
1473,pundaguitan,100,PH,1591219407,68,6.37,126.17,83.91,83.91,3.89
1474,whyalla,0,AU,1591219407,93,-33.03,137.58,37.4,37.4,4.7
1475,farmington,1,US,1591219202,9,36.73,-108.22,91.99,91.67,4.7
1476,mtambile,49,TZ,1591219407,80,-5.38,39.7,78.44,78.44,15.01
1477,los llanos de aridane,90,ES,1591219407,73,28.66,-17.92,71.6,66.99,1.12
1478,dwarka,7,IN,1591219407,85,22.24,68.97,83.43,83.43,14.83
1479,doka,15,SD,1591219407,44,13.52,35.77,82.6,82.6,10.27
1480,santa lucia,20,ES,1591219407,78,27.91,-15.54,73.4,72.68,5.82
1481,tautira,75,PF,1591219408,88,-17.73,-149.15,73.4,73.2,3.36
1482,lancaster,20,US,1591219142,51,40.25,-76.25,87.01,85.05,11.41
1483,antalaha,87,MG,1591219408,82,-14.9,50.28,74.01,74.01,9.84
1484,tirlyanskiy,99,RU,1591219408,92,54.21,58.58,51.39,51.39,3.09
1485,aquiraz,1,BR,1591219408,74,-3.9,-38.39,82.4,82.4,9.17
1486,san carlos,5,VE,1591219253,54,9.66,-68.58,88.92,88.92,4.54
1487,pangnirtung,40,CA,1591219408,80,66.15,-65.71,39.2,39.2,8.05
1488,kattivakkam,20,IN,1591219408,74,13.22,80.32,86.0,86.0,9.17
1489,hvolsvollur,81,IS,1591219408,73,63.75,-20.22,55.29,55.29,3.87
1490,nikolayevskaya,67,RU,1591219408,85,47.61,41.5,55.9,55.9,8.28
1491,upernavik,0,GL,1591219408,92,72.79,-56.15,30.97,30.97,6.69
1492,amapa,80,BR,1591219408,96,1.0,-52.0,76.39,76.39,3.62
1493,san-pedro,63,CI,1591219408,86,4.75,-6.64,79.5,79.5,5.26
1494,havelock,20,US,1591219396,65,34.88,-76.9,82.4,79.36,19.46
1495,manta,75,EC,1591219207,69,-0.95,-80.73,80.6,80.6,10.29
1496,sorland,81,NO,1591219325,78,67.67,12.69,44.4,44.4,19.8
1497,meulaboh,100,ID,1591219409,84,4.14,96.13,75.69,75.69,4.54
1498,novopokrovka,18,UA,1591219409,86,49.84,36.55,54.66,54.66,4.59
1499,saint-pierre,1,RE,1591219409,64,-21.34,55.48,68.0,61.68,5.82
1500,bengkulu,100,ID,1591219409,87,-3.8,102.27,76.23,76.23,5.44
1501,wicklow,75,IE,1591219409,57,53.0,-6.42,52.0,51.17,6.93
1502,avera,1,US,1591219409,55,33.19,-82.53,86.0,85.1,8.05
1503,provideniya,0,RU,1591219409,75,64.38,-173.3,41.0,41.0,8.95
1504,half moon bay,1,US,1591219310,72,37.46,-122.43,96.01,79.45,12.75
1505,podporozhye,98,RU,1591219409,67,60.91,34.17,52.47,52.47,6.4
1506,ostrovnoy,5,RU,1591219409,67,68.05,39.51,52.99,52.99,13.94
1507,poum,95,NC,1591219409,85,-20.23,164.02,75.2,75.2,18.99
1508,plaeng yao,100,TH,1591219409,89,13.58,101.28,82.0,82.0,4.52
1509,komsomolskiy,56,UZ,1591219409,38,40.43,71.72,75.2,75.2,6.93
1510,kalga,100,RU,1591219409,63,50.93,118.9,50.85,50.85,1.36
1511,yulara,0,AU,1591219410,75,-25.24,130.99,41.0,41.0,5.82
1512,oranjestad,40,AW,1591219125,66,12.52,-70.03,86.0,86.0,24.16
1513,yumen,12,CN,1591219410,24,40.28,97.2,68.72,68.72,7.36
1514,denpasar,75,ID,1591219410,100,-8.65,115.22,77.0,77.0,11.41
1515,omsukchan,0,RU,1591219410,56,62.53,155.8,50.05,50.05,3.4
1516,cabedelo,4,BR,1591219384,94,-6.98,-34.83,77.0,77.0,5.82
1517,bathsheba,20,BB,1591219410,70,13.22,-59.52,84.2,84.2,19.46
1518,gunjur,0,GM,1591219410,74,13.2,-16.73,78.8,78.8,11.41
1519,fukuma,75,JP,1591219410,88,33.77,130.47,71.01,69.96,3.36
1520,carutapera,14,BR,1591219206,93,-1.2,-46.02,77.29,77.29,7.4
1521,khuzdar,0,PK,1591219410,49,27.74,66.64,78.12,78.12,2.82
1522,ulladulla,75,AU,1591219410,66,-35.35,150.47,48.2,39.83,6.93
1523,namibe,0,AO,1591219410,80,-15.2,12.15,71.28,71.28,3.36
1524,novikovo,0,RU,1591219410,89,51.15,37.89,53.42,53.42,3.2
1525,korla,63,CN,1591219410,66,41.76,86.15,77.0,77.0,1.99
1526,eureka,20,US,1591219291,82,40.8,-124.16,70.0,64.92,16.11
1527,elliot,100,ZA,1591219411,50,-31.33,27.85,48.22,48.22,2.39
1528,lukh,97,RU,1591219411,87,57.01,42.26,55.63,55.63,12.53
1529,uray,8,RU,1591219411,71,60.12,64.78,39.97,39.97,1.61
1530,vao,90,NC,1591219411,88,-22.67,167.48,72.75,72.75,15.86
1531,muros,90,ES,1591219411,86,42.78,-9.06,63.0,62.46,1.99
1532,batemans bay,0,AU,1591219411,91,-35.72,150.18,39.99,39.99,5.14
1533,doha,0,QA,1591219244,41,25.29,51.53,97.0,93.87,3.36
1534,georgiyevka,0,KZ,1591219411,56,43.04,74.71,68.0,68.0,8.95
1535,plettenberg bay,100,ZA,1591219290,83,-34.05,23.37,59.4,59.4,3.78
1536,pemangkat,80,ID,1591219411,87,1.17,108.97,78.35,78.35,0.54
1537,kutum,36,SD,1591219411,16,14.2,24.67,79.3,79.3,9.24
1538,reading,100,GB,1591219411,93,51.46,-0.97,57.0,55.36,10.29
1539,balad,0,IQ,1591219411,18,34.02,44.15,82.72,82.72,12.64
1540,mehamn,75,NO,1591219411,75,71.04,27.85,44.6,44.6,4.7
1541,semey,100,KZ,1591219411,62,50.41,80.23,59.45,59.45,2.68
1542,petrovsk,100,RU,1591219412,89,52.31,45.39,61.25,61.25,14.0
1543,kavieng,99,PG,1591219412,75,-2.57,150.8,82.81,82.81,10.76
1544,mandalgovi,100,MN,1591219412,72,45.76,106.27,49.62,49.62,2.64
1545,chato,74,TZ,1591219412,63,-2.64,31.77,70.41,70.41,5.01
1546,pontianak,97,ID,1591219412,94,-0.03,109.33,76.1,76.1,3.09
1547,agadez,9,NE,1591219412,13,19.75,10.25,95.61,95.61,11.48
1548,naron,40,ES,1591219412,87,43.52,-8.15,63.0,60.6,2.24
1549,aloleng,89,PH,1591219412,69,16.13,119.78,83.86,83.86,2.21
1550,kloulklubed,75,PW,1591219412,94,7.04,134.26,77.0,77.0,3.36
1551,ramnagar,44,IN,1591219412,48,29.4,79.12,78.96,78.96,6.4
1552,ulaangom,100,MN,1591219412,59,49.98,92.07,55.4,55.4,4.47
1553,sayyan,100,YE,1591219412,76,15.17,44.32,61.16,61.16,1.39
1554,ko samui,99,TH,1591219412,74,9.54,99.94,83.55,83.55,12.03
1555,lorengau,97,PG,1591219412,78,-2.02,147.27,81.7,81.7,2.55
1556,broken hill,0,AU,1591219413,86,-31.95,141.43,37.4,37.4,9.24
1557,tupik,100,RU,1591219413,67,54.43,119.93,46.8,46.8,0.85
1558,latung,71,PH,1591219413,72,5.5,120.88,83.93,83.93,6.82
1559,sereflikochisar,100,TR,1591219413,58,38.94,33.54,61.92,61.92,8.66
1560,acapulco,20,MX,1591219411,70,16.86,-99.89,84.2,84.2,12.75
1561,tsaratanana,30,MG,1591219413,68,-16.78,47.65,67.28,67.28,13.78
1562,lekoni,91,GA,1591219413,77,-1.58,14.26,77.61,77.61,2.37
1563,husyatyn,62,UA,1591219413,83,49.07,26.21,53.01,52.03,1.99
1564,sawakin,0,SD,1591219413,36,19.11,37.33,86.05,86.05,6.06
1565,caravelas,21,BR,1591219413,89,-17.71,-39.25,74.73,74.73,6.44
1566,taksimo,92,RU,1591219413,56,56.34,114.88,51.57,51.57,0.51
1567,shingu,100,JP,1591219413,85,33.73,135.98,65.52,65.52,3.56
1568,san cristobal,40,VE,1591219413,55,7.77,-72.22,89.6,89.6,12.75
1569,fort-de-france,75,MQ,1591219413,70,14.61,-61.07,86.0,83.1,17.22
1570,emba,63,KZ,1591219413,49,48.83,58.14,70.45,70.45,21.61
1571,tornio,92,FI,1591219413,81,65.85,24.15,51.8,51.8,4.7
1572,phan thiet,100,VN,1591219414,83,10.93,108.1,79.2,79.2,2.73
1573,kathu,75,TH,1591219414,88,7.92,98.33,77.0,77.0,4.7
1574,cravo norte,8,CO,1591219414,66,6.3,-70.2,86.76,86.76,7.63
1575,vila franca do campo,75,PT,1591219414,93,37.72,-25.43,62.6,62.6,19.46
1576,jiujiang,89,CN,1591219414,82,29.73,115.98,76.51,76.51,1.99
1577,kilindoni,93,TZ,1591219414,77,-7.91,39.67,79.77,79.77,16.44
1578,fairbanks,90,US,1591219414,82,64.84,-147.72,59.0,55.18,9.17
1579,kushtagi,100,IN,1591219414,73,15.77,76.2,75.69,75.69,21.16
1580,dingle,95,PH,1591219414,81,11.0,122.67,78.33,78.33,2.57
1581,bilma,1,NE,1591219414,13,18.69,12.92,93.58,93.58,6.73
1582,nazarovo,100,RU,1591219414,87,56.01,90.39,41.65,41.65,5.08
1583,mushie,100,CD,1591219414,86,-3.02,16.9,74.84,74.84,3.11
1584,altamira,16,BR,1591219221,92,-3.2,-52.21,78.89,78.89,3.47
1585,jalapa,28,MX,1591219335,63,19.53,-96.92,77.65,77.65,5.35
1586,kamina,0,CD,1591219414,62,-8.74,24.99,65.46,65.46,1.97
1587,botwood,98,CA,1591219415,70,49.15,-55.35,52.0,52.0,5.01
1588,guiong,20,PH,1591219415,94,6.42,122.03,75.2,75.2,2.24
1589,renqiu,3,CN,1591219415,19,38.7,116.09,75.31,75.31,12.71
1590,nyurba,25,RU,1591219415,53,63.28,118.33,56.07,56.07,3.36
1591,mountain home,40,US,1591219415,19,43.13,-115.69,86.0,86.0,11.41
1592,jumla,76,NP,1591219415,63,29.27,82.18,51.66,51.66,1.01
1593,chingirlau,46,KZ,1591219415,55,51.09,54.08,70.77,70.77,17.47
1594,riyadh,6,SA,1591219280,19,24.69,46.72,95.0,95.0,3.36
1595,san francisco,20,US,1591219370,39,37.77,-122.42,91.4,78.76,17.22
1596,sabang,100,ID,1591219415,77,5.89,95.32,83.16,83.16,12.77
1597,george,100,ZA,1591219342,93,-33.96,22.46,57.2,57.2,3.36
1598,concordia,0,AR,1591219415,67,-31.39,-58.02,59.0,59.0,6.93
